{"version": 0.6, "generator": "Overpass API 0.7.62.11 87bfad18", "osm3s": {"timestamp_osm_base": "2026-05-09T14:56:17Z", "copyright": "The data included in this document is from www.openstreetmap.org. The data is made available under ODbL."}, "elements": [{"type": "node", "id": 17680222, "lat": 33.7687147, "lon": -118.1893988, "tags": {"light_rail": "yes", "name": "1st Street", "network": "LACMTA", "operator": "Los Angeles County Metropolitan Transportation Authority", "public_transport": "station", "railway": "station", "station": "light_rail", "wheelchair": "yes", "wikidata": "Q4596639"}}, {"type": "node", "id": 17680230, "lat": 33.7680387, "lon": -118.1929586, "tags": {"alt_name": "Transit Mall", "light_rail": "yes", "name": "Downtown Long Beach", "network": "LACMTA", "operator": "Los Angeles County Metropolitan Transportation Authority", "public_transport": "station", "railway": "station", "station": "light_rail", "wheelchair": "yes", "wikidata": "Q771702"}}, {"type": "node", "id": 17706965, "lat": 33.7735381, "lon": -118.1893802, "tags": {"light_rail": "yes", "name": "5th Street", "network": "Metro Rail", "network:wikidata": "Q1339558", "operator": "Los Angeles County Metropolitan Transportation Authority", "operator:wikidata": "Q3259702", "public_transport": "station", "railway": "station", "station": "light_rail", "subway": "yes", "wheelchair": "yes", "wikidata": "Q970664"}}, {"type": "node", "id": 247141462, "lat": 33.8094021, "lon": -117.924528, "tags": {"air_conditioning": "no", "fee": "Disneyland Park admittance required to enter Downtown Disney station", "internet_access": "no", "name": "Downtown Disney Monorail Station", "old_name": "Disneyland Hotel Monorail Station", "public_transport": "station", "railway": "station", "source": "http://disneyland.disney.go.com/disneyland/disneyland-monorail/", "tourism": "attraction", "wheelchair": "limited"}}, {"type": "node", "id": 268371846, "lat": 34.0496322, "lon": -118.2510126, "tags": {"name": "Pershing Square", "network": "LACMTA", "operator": "Los Angeles County Metropolitan Transportation Authority", "public_transport": "station", "railway": "station", "station": "subway", "subway": "yes", "wheelchair": "yes", "wikidata": "Q5919683"}}, {"type": "node", "id": 268372325, "lat": 34.0486587, "lon": -118.258743, "tags": {"light_rail": "yes", "location": "underground", "name": "7th Street/Metro Center", "network": "LACMTA", "operator": "Los Angeles County Metropolitan Transportation Authority", "public_transport": "station", "railway": "station", "station": "light_rail", "wheelchair": "yes", "wikidata": "Q3093639"}}, {"type": "node", "id": 298548041, "lat": 33.8558752, "lon": -118.133783, "tags": {"bus": "yes", "highway": "bus_stop", "public_transport": "platform"}}, {"type": "node", "id": 298548825, "lat": 33.8599536, "lon": -118.1338037, "tags": {"bus": "yes", "highway": "bus_stop", "public_transport": "platform"}}, {"type": "node", "id": 298551533, "lat": 33.8326448, "lon": -118.133881, "tags": {"bus": "yes", "highway": "bus_stop", "public_transport": "platform"}}, {"type": "node", "id": 298551534, "lat": 33.8337417, "lon": -118.133866, "tags": {"bus": "yes", "highway": "bus_stop", "public_transport": "platform"}}, {"type": "node", "id": 298551536, "lat": 33.8397843, "lon": -118.1338224, "tags": {"bus": "yes", "highway": "bus_stop", "public_transport": "platform"}}, {"type": "node", "id": 298551608, "lat": 33.8322532, "lon": -118.134295, "tags": {"bus": "yes", "highway": "bus_stop", "public_transport": "platform"}}, {"type": "node", "id": 298551610, "lat": 33.8322573, "lon": -118.133394, "tags": {"bus": "yes", "highway": "bus_stop", "public_transport": "platform"}}, {"type": "node", "id": 298551718, "lat": 33.8358949, "lon": -118.133863, "tags": {"bus": "yes", "highway": "bus_stop", "public_transport": "platform"}}, {"type": "node", "id": 298551719, "lat": 33.8433091, "lon": -118.133827, "tags": {"bus": "yes", "highway": "bus_stop", "public_transport": "platform"}}, {"type": "node", "id": 298551720, "lat": 33.8461794, "lon": -118.133803, "tags": {"bus": "yes", "highway": "bus_stop", "public_transport": "platform"}}, {"type": "node", "id": 303090085, "lat": 33.8397708, "lon": -118.125116, "tags": {"bus": "yes", "highway": "bus_stop", "public_transport": "platform"}}, {"type": "node", "id": 303090453, "lat": 33.8428724, "lon": -118.124974, "tags": {"bus": "yes", "highway": "bus_stop", "public_transport": "platform"}}, {"type": "node", "id": 358850787, "lat": 33.9536261, "lon": -118.223961, "tags": {"bus": "yes", "ele": "36", "gnis:feature_id": "1878359", "highway": "bus_stop", "name": "Firestone Assembly of God Church", "public_transport": "platform", "religion": "christian"}}, {"type": "node", "id": 368173836, "lat": 33.8685908, "lon": -117.9227053, "tags": {"addr:state": "CA", "ele": "49", "gnis:feature_id": "1766007", "name": "Fullerton", "network": "Amtrak;Metrolink", "old_name": "Fullerton Union Pacific Depot", "public_transport": "station", "railway": "station", "railway:position": "mi:165.1", "railway:ref": "FUL", "source": "USGS Geonames", "train": "yes", "website": "https://www.amtrak.com/stations/ful", "wheelchair": "yes", "wikidata": "Q3096498", "wikipedia": "en:Fullerton Transportation Center"}}, {"type": "node", "id": 392437272, "lat": 33.8602488, "lon": -118.142968, "tags": {"bus": "yes", "highway": "bus_stop", "public_transport": "platform"}}, {"type": "node", "id": 417627733, "lat": 33.8319479, "lon": -118.1252316, "tags": {"bus": "yes", "highway": "bus_stop", "public_transport": "platform"}}, {"type": "node", "id": 580751545, "lat": 34.0324769, "lon": -117.971461, "tags": {"bus": "yes", "highway": "bus_stop", "name": "Foothill Transit 194", "network": "Foothill Transit", "network:wikidata": "Q5466493", "operator": "Foothill Transit", "public_transport": "platform", "ref": "484", "source": "survey;image;usgs_imagery", "source_ref": "AM909_DSCQ1198"}}, {"type": "node", "id": 580751651, "lat": 34.0380455, "lon": -117.979587, "tags": {"bench": "yes", "bin": "no", "bus": "yes", "highway": "bus_stop", "name": "Foothill Transit 194", "network": "Foothill Transit", "network:wikidata": "Q5466493", "operator": "Foothill Transit", "public_transport": "platform", "ref": "484", "shelter": "no", "source": "survey;image;usgs_imagery", "source_ref": "AM909_DSCQ1194", "tactile_paving": "no"}}, {"type": "node", "id": 580751671, "lat": 34.0397326, "lon": -117.98203, "tags": {"bench": "yes", "bus": "yes", "highway": "bus_stop", "name": "Metro 194", "operator": "Metro", "public_transport": "platform", "ref": "484", "shelter": "no", "source": "survey;image;usgs_imagery", "source_ref": "AM909_DSCQ1193"}}, {"type": "node", "id": 582842807, "lat": 34.0179101, "lon": -118.165619, "tags": {"bus": "yes", "highway": "bus_stop", "name": "Metro", "public_transport": "platform", "ref": "66;66;366", "shelter": "no", "source": "survey;image;usgs_imagery", "source_ref": "AM909_DSCQ2179", "towards": "8th/Western;Wilshire/Western - Red Line Stn.;Wilshire/Western - Red Line Stn."}}, {"type": "node", "id": 582842808, "lat": 34.0183961, "lon": -118.167949, "tags": {"bus": "yes", "highway": "bus_stop", "name": "Metro", "public_transport": "platform", "ref": "66;66;366", "shelter": "yes", "source": "survey;image;usgs_imagery", "source_ref": "AM909_DSCQ2181", "towards": "8th/Western;Wilshire/Western - Red Line Stn.;Wilshire/Western - Red Line Stn."}}, {"type": "node", "id": 582842820, "lat": 34.0173078, "lon": -118.162773, "tags": {"bus": "yes", "highway": "bus_stop", "name": "Metro", "public_transport": "platform", "ref": "66;66;366", "shelter": "no", "source": "survey;image;usgs_imagery", "source_ref": "AM909_DSCQ2175", "towards": "8th/Western;Wilshire/Western - Red Line Stn.;Wilshire/Western - Red Line Stn."}}, {"type": "node", "id": 582842823, "lat": 34.0165064, "lon": -118.159, "tags": {"bus": "yes", "highway": "bus_stop", "name": "Metro", "public_transport": "platform", "ref": "66;66;366", "shelter": "no", "source": "survey;image;usgs_imagery", "source_ref": "AM909_DSCQ2171", "towards": "8th/Western;Wilshire/Western - Red Line Stn.;Wilshire/Western - Red Line Stn."}}, {"type": "node", "id": 582866883, "lat": 34.044489, "lon": -118.173512, "tags": {"bench": "yes", "bin": "yes", "bus": "yes", "departures_board": "no", "highway": "bus_stop", "lit": "yes", "name": "Eastern / Floral;Eastern Avenue & Floral Drive (Northbound)", "network": "Metro Local;City of Commerce Transit", "network:wikidata": "Q77610", "network:wikipedia": "en:Los Angeles Metro Bus", "operator": "Los Angeles County Metropolitan Transportation Authority", "operator:wikidata": "Q3259702", "operator:wikipedia": "en:Los Angeles County Metropolitan Transportation Authority", "public_transport": "platform", "ref": "10059;725", "shelter": "no", "source": "survey;image;usgs_imagery", "source_ref": "AM909_DSCQ2217", "surface": "concrete", "tactile_paving": "no"}}, {"type": "node", "id": 583031653, "lat": 34.0513573, "lon": -118.1743287, "tags": {"bench": "yes", "bin": "yes", "bus": "yes", "highway": "bus_stop", "lit": "yes", "name": "Eastern / Sheriff;Eastern Avenue & Sheriff Road (Northbound)", "network": "Metro Local;City of Commerce Transit", "network:wikidata": "Q77610", "operator": "Los Angeles County Metropolitan Transportation Authority", "operator:wikidata": "Q3259702", "public_transport": "platform", "ref": "10092;727", "shelter": "no", "source": "survey;image;usgs_imagery", "source_ref": "AM909_DSCQ2221", "surface": "concrete", "tactile_paving": "no"}}, {"type": "node", "id": 607813185, "lat": 34.0334191, "lon": -118.1889846, "tags": {"bus": "yes", "highway": "bus_stop", "name": "3rd & Ditman", "network": "Montebello Bus Lines", "network:wikidata": "Q6905005", "operator": "City of Montebello", "operator:wikidata": "Q664503", "public_transport": "platform", "route_ref": "40", "shelter": "no"}}, {"type": "node", "id": 607813189, "lat": 34.033426, "lon": -118.1868227, "tags": {"bench": "yes", "bus": "yes", "highway": "bus_stop", "name": "3rd & Rowan", "network": "Montebello Bus Lines", "network:wikidata": "Q6905005", "operator": "City of Montebello", "operator:wikidata": "Q664503", "public_transport": "platform", "route_ref": "40", "shelter": "no"}}, {"type": "node", "id": 607813309, "lat": 34.0322276, "lon": -118.154, "tags": {"bus": "yes", "highway": "bus_stop", "public_transport": "platform", "shelter": "yes", "source": "survey;image;usgs_imagery", "source_ref": "AM909_DSCR0260"}}, {"type": "node", "id": 607902549, "lat": 34.0416981, "lon": -118.2140222, "tags": {"bench": "yes", "bus": "yes", "highway": "bus_stop", "name": "4th & Chicago", "network": "Montebello Bus Lines", "network:wikidata": "Q6905005", "operator": "City of Montebello", "operator:wikidata": "Q664503", "public_transport": "platform", "route_ref": "40", "shelter": "no"}}, {"type": "node", "id": 607902559, "lat": 34.0372685, "lon": -118.2040768, "tags": {"bench": "yes", "bus": "yes", "highway": "bus_stop", "name": "4th & Evergreen", "network": "Metro Local;Montebello Bus Lines", "network:wikidata": "Q77610;Q6905005", "operator": "Los Angeles County Metropolitan Transportation Authority;City of Montebello", "operator:wikidata": "Q3259702;Q664503", "public_transport": "platform", "route_ref": "605;40", "shelter": "no"}}, {"type": "node", "id": 607902563, "lat": 34.0357108, "lon": -118.2005945, "tags": {"bench": "yes", "bus": "yes", "highway": "bus_stop", "name": "4th & Fresno", "network": "Metro Local;Montebello Bus Lines", "network:wikidata": "Q77610;Q6905005", "operator": "Los Angeles County Metropolitan Transportation Authority;City of Montebello", "operator:wikidata": "Q3259702;Q664503", "public_transport": "platform", "route_ref": "605;40", "shelter": "no"}}, {"type": "node", "id": 607954831, "lat": 34.0428161, "lon": -118.2229501, "tags": {"bench": "yes", "bus": "yes", "highway": "bus_stop", "name": "4th & Gless", "network": "Montebello Bus Lines", "network:wikidata": "Q6905005", "operator": "City of Montebello", "operator:wikidata": "Q664503", "public_transport": "platform", "shelter": "yes"}}, {"type": "node", "id": 607954832, "lat": 34.0430086, "lon": -118.2224251, "tags": {"bench": "yes", "bus": "yes", "highway": "bus_stop", "name": "4th & Gless", "network": "Montebello Bus Lines", "network:wikidata": "Q6905005", "operator": "City of Montebello", "operator:wikidata": "Q664503", "public_transport": "platform", "route_ref": "40", "shelter": "yes"}}, {"type": "node", "id": 607992227, "lat": 34.0484605, "lon": -118.2444894, "tags": {"bench": "yes", "bus": "yes", "highway": "bus_stop", "name": "3rd & Los Angeles", "network": "Montebello Bus Lines", "network:wikidata": "Q6905005", "network:wikipedia": "en:Montebello Bus Lines", "operator": "City of Montebello", "operator:wikidata": "Q664503", "operator:wikipedia": "en:Montebello, California", "public_transport": "platform", "shelter": "no", "source_ref": "AM909_DSCR0359"}}, {"type": "node", "id": 612996011, "lat": 34.0087466, "lon": -118.185086, "tags": {"bus": "yes", "highway": "bus_stop", "name": "Montebello", "public_transport": "platform", "ref": "50", "shelter": "no", "source": "survey;image;yahoo_imagery", "source_ref": "AM909_DSCR9442"}}, {"type": "node", "id": 612996028, "lat": 34.006951, "lon": -118.179545, "tags": {"bus": "yes", "highway": "bus_stop", "name": "Montebello", "public_transport": "platform", "ref": "50", "shelter": "no", "source": "survey;image;yahoo_imagery", "source_ref": "AM909_DSCR9420"}}, {"type": "node", "id": 612996046, "lat": 34.0015016, "lon": -118.162893, "tags": {"bus": "yes", "highway": "bus_stop", "name": "Montebello", "public_transport": "platform", "ref": "50", "shelter": "no", "source": "survey;image;yahoo_imagery", "source_ref": "AM909_DSCR9403", "towards": "5th & Beaudry, Downtown LA"}}, {"type": "node", "id": 612996065, "lat": 34.0032255, "lon": -118.1679806, "tags": {"bus": "yes", "highway": "bus_stop", "name": "Montebello;Washington Boulevard & Atlantic Boulevard", "network": "Montebello Bus Lines;City of Commerce Transit", "network:wikidata": "Q6905005", "operator": "City of Montebello", "operator:wikidata": "Q664503", "public_transport": "platform", "ref": "50;650", "shelter": "no", "source": "survey;image;yahoo_imagery", "source_ref": "AM909_DSCR9411", "towards": "5th & Beaudry, Downtown LA"}}, {"type": "node", "id": 613372876, "lat": 34.0190685, "lon": -118.233112, "tags": {"bus": "yes", "highway": "bus_stop", "name": "Washington/Alameda Railroad", "network": "Montebello Bus Lines", "network:wikidata": "Q6905005", "operator": "City of Montebello", "operator:wikidata": "Q664503", "public_transport": "platform", "route_ref": "50", "shelter": "no"}}, {"type": "node", "id": 613372891, "lat": 34.0190676, "lon": -118.2308275, "tags": {"bench": "no", "bus": "yes", "highway": "bus_stop", "name": "Washington & Santa Fe", "network": "Montebello Bus Lines", "network:wikidata": "Q6905005", "operator": "City of Montebello", "operator:wikidata": "Q664503", "public_transport": "platform", "route_ref": "50", "shelter": "no"}}, {"type": "node", "id": 613483952, "lat": 34.0214912, "lon": -118.245412, "tags": {"bus": "yes", "highway": "bus_stop", "name": "Washington & Hooper", "network": "Montebello Bus Lines", "network:wikidata": "Q6905005", "operator": "City of Montebello", "operator:wikidata": "Q664503", "public_transport": "platform", "route_ref": "50", "shelter": "no"}}, {"type": "node", "id": 613483967, "lat": 34.0204212, "lon": -118.2424816, "tags": {"bus": "yes", "highway": "bus_stop", "name": "Washington & Long Beach", "network": "Montebello Bus Lines", "network:wikidata": "Q6905005", "operator": "City of Montebello", "operator:wikidata": "Q664503", "public_transport": "platform", "route_ref": "50", "shelter": "no", "source": "survey;image;usgs_imagery", "source_ref": "AM909_DSCR9496"}}, {"type": "node", "id": 613483976, "lat": 34.0219895, "lon": -118.2458101, "tags": {"bench": "no", "bus": "yes", "highway": "bus_stop", "name": "Washington & Hooper", "network": "Montebello Bus Lines", "network:wikidata": "Q6905005", "operator": "City of Montebello", "operator:wikidata": "Q664503", "public_transport": "platform", "route_ref": "50", "shelter": "no"}}, {"type": "node", "id": 613484101, "lat": 34.0214923, "lon": -118.2300935, "tags": {"bench": "no", "bus": "yes", "highway": "bus_stop", "name": "Santa Fe & 15th", "network": "Metro Local", "network:wikidata": "Q77610", "operator": "Los Angeles County Metropolitan Transportation Authority", "operator:wikidata": "Q3259702", "public_transport": "platform", "route_ref": "60", "shelter": "no", "source": "survey;image;usgs_imagery", "source_ref": "AM909_DSCR9512"}}, {"type": "node", "id": 628641563, "lat": 33.9299627, "lon": -118.147654, "tags": {"bus": "yes", "highway": "bus_stop", "name": "Metro", "public_transport": "platform", "ref": "265", "shelter": "no", "source": "survey;image;usgs_imagery", "source_ref": "AM909_DSCS2774"}}, {"type": "node", "id": 628641566, "lat": 33.9381589, "lon": -118.141479, "tags": {"bus": "yes", "highway": "bus_stop", "name": "Paramount / Brookmill", "network": "Metro Local", "network:wikidata": "Q77610", "operator": "Los Angeles County Metropolitan Transportation Authority", "operator:wikidata": "Q3259702", "public_transport": "platform", "ref": "142273", "shelter": "no", "source": "survey;image;usgs_imagery", "source_ref": "AM909_DSCS2765"}}, {"type": "node", "id": 628641567, "lat": 33.941073, "lon": -118.139327, "tags": {"bus": "yes", "highway": "bus_stop", "name": "Paramount / Phlox", "network": "Metro Local", "network:wikidata": "Q77610", "operator": "Los Angeles County Metropolitan Transportation Authority", "operator:wikidata": "Q3259702", "public_transport": "platform", "ref": "142274", "shelter": "no", "source": "survey;image;usgs_imagery", "source_ref": "AM909_DSCS2762"}}, {"type": "node", "id": 628641572, "lat": 33.9464623, "lon": -118.1354, "tags": {"bus": "yes", "fixme": "Shouldn't this be part of a relation with the bus line(s) it serves?", "highway": "bus_stop", "name": "Metro", "public_transport": "platform", "ref": "265", "shelter": "no", "source": "survey;image;usgs_imagery", "source_ref": "AM909_DSCS2750"}}, {"type": "node", "id": 628641574, "lat": 33.948575, "lon": -118.133828, "tags": {"bus": "yes", "highway": "bus_stop", "name": "Metro", "public_transport": "platform", "ref": "265", "shelter": "no", "source": "survey;image;usgs_imagery", "source_ref": "AM909_DSCS2747"}}, {"type": "node", "id": 628641588, "lat": 33.9883899, "lon": -118.137812, "tags": {"bus": "yes", "highway": "bus_stop", "name": "Commerce", "public_transport": "platform", "ref": "Orange", "shelter": "no", "source": "survey;image;usgs_imagery", "source_ref": "AM909_DSCS2703"}}, {"type": "node", "id": 628641592, "lat": 33.9623971, "lon": -118.123107, "tags": {"bus": "yes", "highway": "bus_stop", "name": "Metro", "public_transport": "platform", "ref": "265", "shelter": "no", "source": "survey;image;usgs_imagery", "source_ref": "AM909_DSCS2736"}}, {"type": "node", "id": 628641593, "lat": 33.9661074, "lon": -118.117597, "tags": {"bus": "yes", "highway": "bus_stop", "name": "Metro", "public_transport": "platform", "shelter": "no", "source": "survey;image;usgs_imagery", "source_ref": "AM909_DSCS2733"}}, {"type": "node", "id": 628833070, "lat": 33.8894182, "lon": -118.16023, "tags": {"bus": "yes", "highway": "bus_stop", "name": "Metro", "network": "Metro Local", "network:wikidata": "Q77610", "operator": "Los Angeles County Metropolitan Transportation Authority", "operator:wikidata": "Q3259702", "public_transport": "platform", "ref": "265", "shelter": "no", "source": "survey;image;usgs_imagery", "source_ref": "AM909_DSCS2825", "towards": "Lakewood Ctr via Paramount Blvd"}}, {"type": "node", "id": 628833082, "lat": 33.889314, "lon": -118.160616, "tags": {"bus": "yes", "day_off": "Fr", "day_on": "Mo", "highway": "bus_stop", "name": "Alondra / Paramount", "network": "Metro Local;Long Beach Transit", "network:wikidata": "Q77610;Q6672372", "operator": "Los Angeles County Metropolitan Transportation Authority", "operator:wikidata": "Q3259702", "public_transport": "platform", "ref": "8481", "route_ref": "128", "shelter": "yes"}}, {"type": "node", "id": 628833101, "lat": 33.8908589, "lon": -118.160226, "tags": {"bus": "yes", "highway": "bus_stop", "name": "Metro", "network": "Metro Local", "network:wikidata": "Q77610", "operator": "Los Angeles County Metropolitan Transportation Authority", "operator:wikidata": "Q3259702", "public_transport": "platform", "ref": "265", "shelter": "no", "source": "survey;image;usgs_imagery", "source_ref": "AM909_DSCS2824", "towards": "Lakewood Ctr via Paramount Blvd"}}, {"type": "node", "id": 628833112, "lat": 33.9028863, "lon": -118.160289, "tags": {"bus": "yes", "highway": "bus_stop", "name": "Metro;Paramount", "public_transport": "platform", "ref": "265;", "source": "survey;image;usgs_imagery", "source_ref": "AM909_DSCS2809", "towards": "Lakewood Ctr via Paramount Blvd;"}}, {"type": "node", "id": 628833117, "lat": 33.9013602, "lon": -118.16028, "tags": {"bus": "yes", "highway": "bus_stop", "name": "Paramount", "public_transport": "platform", "shelter": "yes", "source": "survey;image;usgs_imagery", "source_ref": "AM909_DSCS2811"}}, {"type": "node", "id": 628833121, "lat": 33.9071488, "lon": -118.160062, "tags": {"bus": "yes", "highway": "bus_stop", "name": "Metro", "public_transport": "platform", "ref": "265", "shelter": "no", "source": "survey;image;usgs_imagery", "source_ref": "AM909_DSCS2804"}}, {"type": "node", "id": 628833126, "lat": 33.9070117, "lon": -118.160341, "tags": {"bus": "yes", "highway": "bus_stop", "name": "Metro;Paramount", "public_transport": "platform", "ref": "265;", "source": "survey;image;usgs_imagery", "source_ref": "AM909_DSCS2805", "towards": "Lakewood Ctr via Paramount Blvd;"}}, {"type": "node", "id": 628833131, "lat": 33.9103458, "lon": -118.160367, "tags": {"bus": "yes", "highway": "bus_stop", "name": "Metro", "public_transport": "platform", "ref": "265", "source": "survey;image;usgs_imagery", "source_ref": "AM909_DSCS2802", "towards": "Lakewood Ctr via Paramount Blvd"}}, {"type": "node", "id": 628896032, "lat": 33.8892487, "lon": -118.177958, "tags": {"bus": "yes", "highway": "bus_stop", "name": "Metro", "public_transport": "platform", "ref": "128", "shelter": "no", "source": "survey;image;usgs_imagery", "source_ref": "AM909_DSCS2843", "towards": "Compton via Alondra Blvd"}}, {"type": "node", "id": 628896041, "lat": 33.8892655, "lon": -118.171559, "tags": {"bus": "yes", "highway": "bus_stop", "name": "Metro", "network": "Metro Local", "network:wikidata": "Q77610", "operator": "Los Angeles County Metropolitan Transportation Authority", "operator:wikidata": "Q3259702", "public_transport": "platform", "ref": "128", "shelter": "no", "source": "survey;image;usgs_imagery", "source_ref": "AM909_DSCS2840", "towards": "Compton via Alondra Blvd"}}, {"type": "node", "id": 628896047, "lat": 33.8892854, "lon": -118.16825, "tags": {"bench": "yes", "bin": "yes", "bus": "yes", "day_off": ";Fr", "day_on": ";Mo", "highway": "bus_stop", "name": "Alondra / Garfield", "network": "Metro Local", "network:wikidata": "Q77610", "operator": "Los Angeles County Metropolitan Transportation Authority", "operator:wikidata": "Q3259702", "passenger_information_display": "no", "public_transport": "platform", "ref": "17242", "shelter": "no", "source": "survey;image;usgs_imagery", "source_ref": "AM909_DSCS2837", "tactile_paving": "no", "towards": "Compton via Alondra Blvd;Alhambra"}}, {"type": "node", "id": 628896050, "lat": 33.8892772, "lon": -118.162994, "tags": {"bus": "yes", "highway": "bus_stop", "name": "Paramount", "public_transport": "platform", "shelter": "no", "source": "survey;image;usgs_imagery", "source_ref": "AM909_DSCS2832"}}, {"type": "node", "id": 629023735, "lat": 33.8925681, "lon": -118.193291, "tags": {"bus": "yes", "highway": "bus_stop", "name": "Metro", "public_transport": "platform", "ref": "260", "shelter": "no", "source": "survey;image;usgs_imagery", "source_ref": "AM909_DSCS2870", "towards": "Artesia Blue Line Stn"}}, {"type": "node", "id": 629023742, "lat": 33.8959531, "lon": -118.193265, "tags": {"bus": "yes", "highway": "bus_stop", "name": "Metro", "public_transport": "platform", "ref": "127", "shelter": "no", "source": "survey;image;usgs_imagery", "source_ref": "AM909_DSCS2866", "towards": "Downey"}}, {"type": "node", "id": 629023744, "lat": 33.8958299, "lon": -118.193532, "tags": {"bus": "yes", "highway": "bus_stop", "name": "Metro", "public_transport": "platform", "ref": "260;762", "shelter": "no", "source": "survey;image;usgs_imagery", "source_ref": "AM909_DSCS2867", "towards": "Artesia Blue Line Stn;Artesia Blue Line Stn Rapid"}}, {"type": "node", "id": 629023790, "lat": 33.8961681, "lon": -118.181993, "tags": {"bus": "yes", "highway": "bus_stop", "name": "Metro", "public_transport": "platform", "ref": "127", "shelter": "no", "source": "survey;image;usgs_imagery", "source_ref": "AM909_DSCS2853", "towards": "Downey"}}, {"type": "node", "id": 629032792, "lat": 33.8888246, "lon": -118.203018, "tags": {"bus": "yes", "highway": "bus_stop", "name": "Metro", "public_transport": "platform", "ref": "128", "shelter": "no", "source": "survey;image;usgs_imagery", "source_ref": "AM909_DSCS2890"}}, {"type": "node", "id": 629032795, "lat": 33.8888665, "lon": -118.198084, "tags": {"bus": "yes", "highway": "bus_stop", "name": "Metro", "public_transport": "platform", "ref": "128", "shelter": "no", "source": "survey;image;usgs_imagery", "source_ref": "AM909_DSCS2885"}}, {"type": "node", "id": 629032801, "lat": 33.8886571, "lon": -118.192206, "tags": {"bus": "yes", "highway": "bus_stop", "name": "Metro;Long Beach", "public_transport": "platform", "ref": "128;", "shelter": "no", "source": "survey;image;usgs_imagery", "source_ref": "AM909_DSCS2873", "towards": "Cerritos Town Ctr;"}}, {"type": "node", "id": 629032804, "lat": 33.8888908, "lon": -118.193442, "tags": {"bus": "yes", "highway": "bus_stop", "name": "Metro", "public_transport": "platform", "ref": "128", "shelter": "no", "source": "survey;image;usgs_imagery", "source_ref": "AM909_DSCS2880"}}, {"type": "node", "id": 630044943, "lat": 33.8887256, "lon": -118.215671, "tags": {"bus": "yes", "highway": "bus_stop", "name": "Metro", "public_transport": "platform", "ref": "128", "shelter": "no", "source": "survey;image;usgs_imagery", "source_ref": "AM909_DSCS2904"}}, {"type": "node", "id": 630498739, "lat": 33.8861619, "lon": -118.265025, "tags": {"bus": "yes", "highway": "bus_stop", "name": "Gardena", "public_transport": "platform", "ref": "3", "shelter": "no", "source": "survey;image;usgs_imagery", "source_ref": "AM909_DSCS2938", "towards": "Blue Line/SB Galleria"}}, {"type": "node", "id": 630498767, "lat": 33.8862633, "lon": -118.261681, "tags": {"bus": "yes", "highway": "bus_stop", "name": "Gardena", "public_transport": "platform", "ref": "3", "shelter": "no", "source": "survey;image;usgs_imagery", "source_ref": "AM909_DSCS2937", "towards": "Blue Line/SB Galleria"}}, {"type": "node", "id": 630498831, "lat": 33.8883695, "lon": -118.2505295, "tags": {"bus": "yes", "highway": "bus_stop", "name": "Alondra & Central", "network": "GTrans", "network:wikidata": "Q5522428", "operator": "City of Gardena", "operator:wikidata": "Q846409", "public_transport": "platform", "route_ref": "3", "shelter": "no", "towards": "Blue Line/SB Galleria"}}, {"type": "node", "id": 630498846, "lat": 33.8885924, "lon": -118.243567, "tags": {"bus": "yes", "highway": "bus_stop", "name": "Gardena", "public_transport": "platform", "ref": "3", "source": "survey;image;usgs_imagery", "source_ref": "AM909_DSCS2923", "towards": "Blue Line/SB Galleria"}}, {"type": "node", "id": 630498851, "lat": 33.8886246, "lon": -118.237689, "tags": {"bus": "yes", "highway": "bus_stop", "name": "Metro", "network": "Metro Local", "network:wikidata": "Q77610", "operator": "Los Angeles County Metropolitan Transportation Authority", "operator:wikidata": "Q3259702", "public_transport": "platform", "shelter": "no", "source": "survey;image;usgs_imagery", "source_ref": "AM909_DSCS2921"}}, {"type": "node", "id": 630892376, "lat": 33.8885028, "lon": -118.299243, "tags": {"bus": "yes", "highway": "bus_stop", "name": "Gardena", "public_transport": "platform", "ref": "4", "source": "survey;image;usgs_imagery", "source_ref": "AM909_DSCS2970", "towards": "El Camino/South Park"}}, {"type": "node", "id": 630892385, "lat": 33.8889616, "lon": -118.292, "tags": {"bus": "yes", "highway": "bus_stop", "name": "Gardena", "note": "Signed \"3-Comption\" - assumed mis-spelling of Compton.", "public_transport": "platform", "ref": "1;2;3", "shelter": "no", "source": "survey;image;usgs_imagery", "source_ref": "AM909_DSCS2978", "towards": "147th & Hawthorne;PCH via Normandie;Compton"}}, {"type": "node", "id": 633175502, "lat": 33.8345169, "lon": -118.2904228, "tags": {"bench": "yes", "bus": "yes", "highway": "bus_stop", "name": "Vermont/214th St.", "public_transport": "platform", "shelter": "yes", "source": "survey;image;usgs_imagery", "source_ref": "AM909_DSCS3039"}}, {"type": "node", "id": 633175503, "lat": 33.838631, "lon": -118.2902182, "tags": {"bus": "yes", "highway": "bus_stop", "name": "Vermont/Javelin", "public_transport": "platform", "ref": "205", "shelter": "no", "source": "survey;image;usgs_imagery", "source_ref": "AM909_DSCS3037", "towards": "San Pedro"}}, {"type": "node", "id": 633175505, "lat": 33.8418022, "lon": -118.290161, "tags": {"bus": "yes", "highway": "bus_stop", "name": "Vermont/Torrance", "public_transport": "platform", "ref": "205;550", "shelter": "yes", "source": "survey;image;usgs_imagery", "source_ref": "AM909_DSCS3025", "towards": "San Pedro;San Pedro"}}, {"type": "node", "id": 633175566, "lat": 33.8493526, "lon": -118.2906549, "tags": {"bus": "yes", "highway": "bus_stop", "name": "Vermont/Francisco", "public_transport": "platform", "ref": "205;550", "shelter": "no", "source": "survey;image;usgs_imagery", "source_ref": "AM909_DSCS3016", "towards": "San Pedro;San Pedro"}}, {"type": "node", "id": 633175652, "lat": 33.8584646, "lon": -118.290682, "tags": {"bus": "yes", "highway": "bus_stop", "public_transport": "platform", "shelter": "yes", "source": "survey;image;usgs_imagery", "source_ref": "AM909_DSCS3011"}}, {"type": "node", "id": 633175653, "lat": 33.8621027, "lon": -118.2906727, "tags": {"bus": "yes", "highway": "bus_stop", "name": "Vermont/186th St.", "public_transport": "platform", "ref": "130;205", "shelter": "no", "source": "survey;image;usgs_imagery", "source_ref": "AM909_DSCS3007"}}, {"type": "node", "id": 633175680, "lat": 33.8722932, "lon": -118.2910354, "tags": {"bus": "yes", "highway": "bus_stop", "name": "Vermont/Artesia", "public_transport": "platform", "shelter": "no", "source": "survey;image;usgs_imagery", "source_ref": "AM909_DSCS2999"}}, {"type": "node", "id": 633179951, "lat": 33.8310065, "lon": -118.2914106, "tags": {"bus": "yes", "highway": "bus_stop", "name": "Vermont/Carson", "public_transport": "platform", "shelter": "no", "source": "survey;image;usgs_imagery", "source_ref": "AM909_DSCS3040"}}, {"type": "node", "id": 633931072, "lat": 33.7943224, "lon": -118.290969, "tags": {"bus": "yes", "highway": "bus_stop", "name": "Metro", "public_transport": "platform", "ref": "205", "shelter": "no", "source": "survey;image;usgs_imagery", "source_ref": "AM909_DSCS3085", "towards": "San Pedro"}}, {"type": "node", "id": 633931075, "lat": 33.797956, "lon": -118.290957, "tags": {"bus": "yes", "highway": "bus_stop", "name": "Metro", "public_transport": "platform", "ref": "205;550", "shelter": "no", "source": "survey;image;usgs_imagery", "source_ref": "AM909_DSCS3083", "towards": "San Pedro;San Pedro"}}, {"type": "node", "id": 633931078, "lat": 33.8028949, "lon": -118.290533, "tags": {"bus": "yes", "highway": "bus_stop", "name": "Metro", "public_transport": "platform", "shelter": "yes", "source": "survey;image;usgs_imagery", "source_ref": "AM909_DSCS3080"}}, {"type": "node", "id": 633931082, "lat": 33.8058228, "lon": -118.290514, "tags": {"bus": "yes", "highway": "bus_stop", "name": "Metro", "network": "Metro Local", "network:wikidata": "Q77610", "operator": "Los Angeles County Metropolitan Transportation Authority", "operator:wikidata": "Q3259702", "public_transport": "platform", "ref": "205", "shelter": "yes", "source": "survey;image;usgs_imagery", "source_ref": "AM909_DSCS3078", "towards": "San Pedro"}}, {"type": "node", "id": 633931101, "lat": 33.8098085, "lon": -118.290485, "tags": {"bus": "yes", "highway": "bus_stop", "name": "Metro;Metro;Torrance", "public_transport": "platform", "ref": "205;550;", "shelter": "yes", "source": "survey;image;usgs_imagery", "source_ref": "AM909_DSCS3073", "towards": "San Pedro;San Pedro;"}}, {"type": "node", "id": 633931111, "lat": 33.8122891, "lon": -118.290463, "tags": {"bus": "yes", "highway": "bus_stop", "name": "Metro", "network": "Metro Local", "network:wikidata": "Q77610", "operator": "Los Angeles County Metropolitan Transportation Authority", "operator:wikidata": "Q3259702", "public_transport": "platform", "ref": "205", "shelter": "no", "source": "survey;image;usgs_imagery", "source_ref": "AM909_DSCS3066", "towards": "San Pedro"}}, {"type": "node", "id": 633931118, "lat": 33.8155652, "lon": -118.290447, "tags": {"bus": "yes", "highway": "bus_stop", "name": "Metro", "network": "Metro Local", "network:wikidata": "Q77610", "operator": "Los Angeles County Metropolitan Transportation Authority", "operator:wikidata": "Q3259702", "public_transport": "platform", "ref": "205", "shelter": "no", "source": "survey;image;usgs_imagery", "source_ref": "AM909_DSCS3063", "towards": "San Pedro"}}, {"type": "node", "id": 633931125, "lat": 33.818628, "lon": -118.290415, "tags": {"bus": "yes", "highway": "bus_stop", "name": "Metro", "network": "Metro Local", "network:wikidata": "Q77610", "operator": "Los Angeles County Metropolitan Transportation Authority", "operator:wikidata": "Q3259702", "public_transport": "platform", "ref": "205;550", "shelter": "yes", "source": "survey;image;usgs_imagery", "source_ref": "AM909_DSCS3059", "towards": "San Pedro;San Pedro"}}, {"type": "node", "id": 633931127, "lat": 33.824221, "lon": -118.290421, "tags": {"bus": "yes", "highway": "bus_stop", "name": "Metro", "network": "Metro Local", "network:wikidata": "Q77610", "operator": "Los Angeles County Metropolitan Transportation Authority", "operator:wikidata": "Q3259702", "public_transport": "platform", "ref": "205", "shelter": "yes", "source": "survey;image;usgs_imagery", "source_ref": "AM909_DSCS3053", "towards": "San Pedro"}}, {"type": "node", "id": 633931147, "lat": 33.82828, "lon": -118.290425, "tags": {"bus": "yes", "highway": "bus_stop", "name": "Metro", "network": "Metro Local", "network:wikidata": "Q77610", "operator": "Los Angeles County Metropolitan Transportation Authority", "operator:wikidata": "Q3259702", "public_transport": "platform", "ref": "205", "shelter": "no", "source": "survey;image;usgs_imagery", "source_ref": "AM909_DSCS3049", "towards": "San Pedro"}}, {"type": "node", "id": 634864335, "lat": 33.7817022, "lon": -118.232099, "tags": {"bus": "yes", "highway": "bus_stop", "name": "Metro", "network": "Metro Local", "network:wikidata": "Q77610", "operator": "Los Angeles County Metropolitan Transportation Authority", "operator:wikidata": "Q3259702", "public_transport": "platform", "ref": "232", "shelter": "no", "source": "survey;image;usgs_imagery", "source_ref": "AM909_DSCS3176"}}, {"type": "node", "id": 634864371, "lat": 33.7828585, "lon": -118.219256, "tags": {"bus": "yes", "highway": "bus_stop", "name": "Metro", "network": "Metro Local", "network:wikidata": "Q77610", "operator": "Los Angeles County Metropolitan Transportation Authority", "operator:wikidata": "Q3259702", "public_transport": "platform", "ref": "232", "shelter": "no", "source": "survey;image;usgs_imagery", "source_ref": "AM909_DSCS3190"}}, {"type": "node", "id": 683521026, "lat": 33.642778, "lon": -117.917375, "tags": {"bus": "yes", "highway": "bus_stop", "name": "Newport-19th", "network": "OC Bus", "network:wikidata": "Q6593059", "operator": "Orange County Transportation Authority", "operator:short": "OCTA", "operator:wikidata": "Q7099595", "public_transport": "platform", "ref": "1251", "shelter": "no", "source": "OCTA GIS", "source_ref": "AM909_DSCU4161"}}, {"type": "node", "id": 695036955, "lat": 33.6360664, "lon": -117.9309693, "tags": {"bus": "yes", "highway": "bus_stop", "name": "17th-Placentia", "network": "OC Bus", "network:wikidata": "Q6593059", "operator": "Orange County Transportation Authority", "operator:short": "OCTA", "operator:wikidata": "Q7099595", "public_transport": "platform", "ref": "1067", "shelter": "no", "source": "OCTA GIS", "source_ref": "AM909_DSCU4714"}}, {"type": "node", "id": 696033724, "lat": 33.6281644, "lon": -117.9519784, "tags": {"bus": "yes", "highway": "bus_stop", "name": "Coast-Orange", "network": "OC Bus", "network:wikidata": "Q6593059", "operator": "Orange County Transportation Authority", "operator:short": "OCTA", "operator:wikidata": "Q7099595", "public_transport": "platform", "ref": "4966", "shelter": "no", "source": "OCTA GIS", "source_ref": "AM909_DSCU4904"}}, {"type": "node", "id": 696033730, "lat": 33.6234786, "lon": -117.9397058, "tags": {"bus": "yes", "highway": "bus_stop", "name": "Coast-Superior", "network": "OC Bus", "network:wikidata": "Q6593059", "operator": "Orange County Transportation Authority", "operator:short": "OCTA", "operator:wikidata": "Q7099595", "public_transport": "platform", "ref": "4964", "shelter": "no", "source": "OCTA GIS", "source_ref": "AM909_DSCU4894"}}, {"type": "node", "id": 696518398, "lat": 33.6492196, "lon": -117.9888769, "tags": {"bus": "yes", "highway": "bus_stop", "name": "Pacific Coast-Beach", "network": "OC Bus", "network:wikidata": "Q6593059", "operator": "Orange County Transportation Authority", "operator:short": "OCTA", "operator:wikidata": "Q7099595", "public_transport": "platform", "ref": "2975", "shelter": "no", "source": "OCTA GIS", "source_ref": "AM909_DSCU4923"}}, {"type": "node", "id": 698734609, "lat": 33.6612374, "lon": -118.00734, "tags": {"bus": "yes", "highway": "bus_stop", "name": "Pacific Coast-11th", "network": "OC Bus", "network:wikidata": "Q6593059", "operator": "Orange County Transportation Authority", "operator:short": "OCTA", "operator:wikidata": "Q7099595", "public_transport": "platform", "ref": "2983", "shelter": "no", "source": "OCTA GIS", "source_ref": "AM909_DSCU4943"}}, {"type": "node", "id": 698734632, "lat": 33.6686337, "lon": -118.0176609, "tags": {"bus": "yes", "highway": "bus_stop", "name": "Pacific Coast-Golden West", "network": "OC Bus", "network:wikidata": "Q6593059", "operator": "Orange County Transportation Authority", "operator:short": "OCTA", "operator:wikidata": "Q7099595", "public_transport": "platform", "ref": "2986", "shelter": "no", "source": "OCTA GIS", "source_ref": "AM909_DSCU4959"}}, {"type": "node", "id": 698734643, "lat": 33.6803775, "lon": -118.032374, "tags": {"bus": "yes", "highway": "bus_stop", "name": "Pacific Coast-Seapoint", "network": "OC Bus", "network:wikidata": "Q6593059", "operator": "Orange County Transportation Authority", "operator:short": "OCTA", "operator:wikidata": "Q7099595", "public_transport": "platform", "ref": "5190", "shelter": "yes", "source": "OCTA GIS", "source_ref": "AM909_DSCU4968"}}, {"type": "node", "id": 698734652, "lat": 33.6646829, "lon": -118.0121446, "tags": {"bus": "yes", "highway": "bus_stop", "name": "Pacific Coast-17th", "network": "OC Bus", "network:wikidata": "Q6593059", "operator": "Orange County Transportation Authority", "operator:short": "OCTA", "operator:wikidata": "Q7099595", "public_transport": "platform", "ref": "2985", "shelter": "no", "source": "OCTA GIS", "source_ref": "AM909_DSCU4951"}}, {"type": "node", "id": 699627456, "lat": 33.7145798, "lon": -118.066204, "tags": {"bus": "yes", "highway": "bus_stop", "name": "Pacific Coast-Coral Cay", "network": "OC Bus", "network:wikidata": "Q6593059", "operator": "Orange County Transportation Authority", "operator:short": "OCTA", "operator:wikidata": "Q7099595", "public_transport": "platform", "ref": "2988", "shelter": "yes", "source": "OCTA GIS", "source_ref": "AM909_DSCU4999"}}, {"type": "node", "id": 699656520, "lat": 33.746916, "lon": -118.1053728, "tags": {"bus": "yes", "highway": "bus_stop", "name": "Pacific Coast-Marvista", "network": "OC Bus", "network:wikidata": "Q6593059", "operator": "Orange County Transportation Authority", "operator:short": "OCTA", "operator:wikidata": "Q7099595", "public_transport": "platform", "ref": "6851", "shelter": "yes", "source": "OCTA GIS", "source_ref": "AM909_DSCU5033"}}, {"type": "node", "id": 699656526, "lat": 33.7412468, "lon": -118.0960058, "tags": {"bus": "yes", "highway": "bus_stop", "name": "Pacific Coast-Seal Beach", "network": "OC Bus", "network:wikidata": "Q6593059", "operator": "Orange County Transportation Authority", "operator:short": "OCTA", "operator:wikidata": "Q7099595", "public_transport": "platform", "ref": "6847", "shelter": "yes", "source": "OCTA GIS"}}, {"type": "node", "id": 699656530, "lat": 33.7447683, "lon": -118.102954, "tags": {"bus": "yes", "highway": "bus_stop", "name": "Pacific Coast-Bolsa", "network": "OC Bus", "network:wikidata": "Q6593059", "operator": "Orange County Transportation Authority", "operator:short": "OCTA", "operator:wikidata": "Q7099595", "public_transport": "platform", "ref": "6850", "shelter": "no", "source": "OCTA GIS", "source_ref": "AM909_DSCU5030"}}, {"type": "node", "id": 701702664, "lat": 33.877036, "lon": -118.203697, "tags": {"bus": "yes", "highway": "bus_stop", "name": "Metro", "network": "Metro Local", "network:wikidata": "Q77610", "operator": "Los Angeles County Metropolitan Transportation Authority", "operator:wikidata": "Q3259702", "public_transport": "platform", "ref": "60;202;202", "shelter": "no", "source": "usgs_imagery;survey;image", "source_ref": "AM909_DSCU1151"}}, {"type": "node", "id": 701834517, "lat": 33.8188731, "lon": -118.1975635, "tags": {"bus": "yes", "highway": "bus_stop", "name": "Wardlow & Magnolia", "network": "Long Beach Transit", "network:wikidata": "Q6672372", "public_transport": "platform", "ref": "401", "shelter": "yes"}}, {"type": "node", "id": 701834518, "lat": 33.8178867, "lon": -118.1953805, "tags": {"bus": "yes", "highway": "bus_stop", "name": "Pacific & Brethren Manor", "network": "Long Beach Transit", "network:wikidata": "Q6672372", "public_transport": "platform", "ref": "403", "shelter": "yes"}}, {"type": "node", "id": 702449430, "lat": 33.7755296, "lon": -118.197947, "tags": {"bench": "yes", "bin": "yes", "bus": "yes", "highway": "bus_stop", "lit": "yes", "name": "Magnolia & Seventh", "network": "Long Beach Transit", "network:wikidata": "Q6672372", "public_transport": "platform", "ref": "0072", "shelter": "yes", "tactile_paving": "no"}}, {"type": "node", "id": 703647787, "lat": 33.789757, "lon": -118.184127, "tags": {"bench": "yes", "bin": "yes", "bus": "yes", "highway": "bus_stop", "lit": "yes", "name": "Pacific Coast Highway & Atlantic", "network": "Long Beach Transit", "network:wikidata": "Q6672372", "public_transport": "platform", "ref": "1663", "shelter": "yes"}}, {"type": "node", "id": 703647847, "lat": 33.7897608, "lon": -118.193293, "tags": {"bus": "yes", "highway": "bus_stop", "name": "Pacific Coast Highway & Pacific", "network": "Long Beach Transit", "network:wikidata": "Q6672372", "public_transport": "platform", "ref": "54", "shelter": "yes"}}, {"type": "node", "id": 703900110, "lat": 33.7897542, "lon": -118.1716682, "tags": {"bus": "yes", "highway": "bus_stop", "name": "Pacific Coast Highway & Walnut", "network": "Long Beach Transit", "network:wikidata": "Q6672372", "public_transport": "platform", "ref": "1668", "shelter": "no"}}, {"type": "node", "id": 703900118, "lat": 33.7897554, "lon": -118.175812, "tags": {"bus": "yes", "highway": "bus_stop", "name": "Pacific Coast Highway & Orange", "network": "Long Beach Transit", "network:wikidata": "Q6672372", "public_transport": "platform", "ref": "1667", "shelter": "yes"}}, {"type": "node", "id": 703900147, "lat": 33.7897566, "lon": -118.167166, "tags": {"bus": "yes", "highway": "bus_stop", "name": "Pacific Coast Highway & Cherry", "network": "Long Beach Transit", "network:wikidata": "Q6672372", "public_transport": "platform", "ref": "1670", "shelter": "no"}}, {"type": "node", "id": 704128458, "lat": 33.7897521, "lon": -118.165124, "tags": {"bus": "yes", "highway": "bus_stop", "network": "Long Beach Transit", "network:wikidata": "Q6672372", "public_transport": "platform", "shelter": "yes"}}, {"type": "node", "id": 704128469, "lat": 33.7897432, "lon": -118.160931, "tags": {"bus": "yes", "highway": "bus_stop", "network": "Long Beach Transit", "network:wikidata": "Q6672372", "public_transport": "platform", "shelter": "no"}}, {"type": "node", "id": 704128509, "lat": 33.7897536, "lon": -118.1583689, "tags": {"bus": "yes", "highway": "bus_stop", "name": "Pacific Coast Highway & Temple", "network": "Long Beach Transit", "network:wikidata": "Q6672372", "public_transport": "platform", "ref": "1674", "shelter": "no"}}, {"type": "node", "id": 704354583, "lat": 33.7874351, "lon": -118.139238, "tags": {"bench": "yes", "bin": "yes", "bus": "yes", "highway": "bus_stop", "name": "Pacific Coast Highway & Ximeno", "network": "Long Beach Transit", "network:wikidata": "Q6672372", "public_transport": "platform", "ref": "4086", "shelter": "no", "tactile_paving": "no"}}, {"type": "node", "id": 705672129, "lat": 33.7489176, "lon": -118.1060575, "tags": {"bus": "yes", "highway": "bus_stop", "name": "Pacific Coast-1st", "network": "OC Bus", "network:wikidata": "Q6593059", "operator": "Orange County Transportation Authority", "operator:short": "OCTA", "operator:wikidata": "Q7099595", "public_transport": "platform", "ref": "6853", "shelter": "yes", "source": "OCTA GIS", "source_ref": "AM909_DSCU1643"}}, {"type": "node", "id": 705672135, "lat": 33.7584988, "lon": -118.1113838, "tags": {"bus": "yes", "highway": "bus_stop", "name": "Pacific Coast-Westminster", "network": "OC Bus", "network:wikidata": "Q6593059", "operator": "Orange County Transportation Authority", "operator:short": "OCTA", "operator:wikidata": "Q7099595", "public_transport": "platform", "ref": "4071", "shelter": "no", "source": "OCTA GIS", "source_ref": "AM909_DSCU1624", "type": "public_transport"}}, {"type": "node", "id": 705672162, "lat": 33.7532771, "lon": -118.1069856, "tags": {"bus": "yes", "highway": "bus_stop", "network": "Long Beach Transit", "network:wikidata": "Q6672372", "public_transport": "platform", "shelter": "no", "source": "usgs_imagery;survey;image", "source_ref": "AM909_DSCU1638"}}, {"type": "node", "id": 705672167, "lat": 33.7600054, "lon": -118.113248, "tags": {"bus": "yes", "highway": "bus_stop", "name": "Pacific Coast Highway & Marina Pacifica", "network": "Long Beach Transit", "network:wikidata": "Q6672372", "public_transport": "platform", "ref": "1473", "shelter": "yes"}}, {"type": "node", "id": 705672175, "lat": 33.7459294, "lon": -118.105056, "tags": {"bus": "yes", "highway": "bus_stop", "name": "Pacific Coast-5th", "network": "OC Bus", "network:wikidata": "Q6593059", "operator": "Orange County Transportation Authority", "operator:short": "OCTA", "operator:wikidata": "Q7099595", "public_transport": "platform", "ref": "6854", "shelter": "no", "source": "OCTA GIS", "source_ref": "AM909_DSCU1647"}}, {"type": "node", "id": 705672180, "lat": 33.7547463, "lon": -118.108313, "tags": {"bus": "yes", "highway": "bus_stop", "public_transport": "platform", "shelter": "no"}}, {"type": "node", "id": 705742812, "lat": 33.7430899, "lon": -118.100228, "tags": {"bus": "yes", "highway": "bus_stop", "name": "Pacific Coast-12th", "network": "OC Bus", "network:wikidata": "Q6593059", "operator": "Orange County Transportation Authority", "operator:short": "OCTA", "operator:wikidata": "Q7099595", "public_transport": "platform", "ref": "6856", "shelter": "no", "source": "OCTA GIS", "source_ref": "AM909_DSCU1659"}}, {"type": "node", "id": 705742850, "lat": 33.7411741, "lon": -118.095045, "tags": {"bus": "yes", "highway": "bus_stop", "name": "Seal Beach-Pacific Coast", "network": "OC Bus", "network:wikidata": "Q6593059", "operator": "Orange County Transportation Authority", "operator:short": "OCTA", "operator:wikidata": "Q7099595", "public_transport": "platform", "ref": "6861", "shelter": "yes", "source": "OCTA GIS"}}, {"type": "node", "id": 705806930, "lat": 33.740516, "lon": -118.0950458, "tags": {"bus": "yes", "highway": "bus_stop", "name": "Pacific Coast-Seal Beach", "network": "OC Bus", "network:wikidata": "Q6593059", "operator": "Orange County Transportation Authority", "operator:short": "OCTA", "operator:wikidata": "Q7099595", "public_transport": "platform", "ref": "6858", "shelter": "yes", "source": "OCTA GIS"}}, {"type": "node", "id": 705806943, "lat": 33.7245563, "lon": -118.0783071, "tags": {"bus": "yes", "highway": "bus_stop", "name": "Pacific Coast-Anderson", "network": "OC Bus", "network:wikidata": "Q6593059", "operator": "Orange County Transportation Authority", "operator:short": "OCTA", "operator:wikidata": "Q7099595", "public_transport": "platform", "ref": "6859", "shelter": "yes", "source": "OCTA GIS", "source_ref": "AM909_DSCU1731"}}, {"type": "node", "id": 705806958, "lat": 33.7233043, "lon": -118.0763442, "tags": {"bus": "yes", "highway": "bus_stop", "name": "Pacific Coast-24th", "network": "OC Bus", "network:wikidata": "Q6593059", "operator": "Orange County Transportation Authority", "operator:short": "OCTA", "operator:wikidata": "Q7099595", "public_transport": "platform", "ref": "5185", "shelter": "no", "source": "OCTA GIS", "source_ref": "AM909_DSCU1734"}}, {"type": "node", "id": 708330298, "lat": 33.7210427, "lon": -118.073872, "tags": {"bus": "yes", "highway": "bus_stop", "name": "Pacific Coast-Admiralty", "network": "OC Bus", "network:wikidata": "Q6593059", "operator": "Orange County Transportation Authority", "operator:short": "OCTA", "operator:wikidata": "Q7099595", "public_transport": "platform", "ref": "2990", "shelter": "no", "source": "OCTA GIS", "source_ref": "AM909_DSCU1854"}}, {"type": "node", "id": 708330307, "lat": 33.7115593, "lon": -118.0608212, "tags": {"bench": "no", "bin": "no", "bus": "yes", "highway": "bus_stop", "lit": "no", "name": "Warner-Pacific Coast", "network": "OC Bus", "network:wikidata": "Q6593059", "operator": "Orange County Transportation Authority", "operator:short": "OCTA", "operator:wikidata": "Q7099595", "public_transport": "platform", "ref": "3038", "shelter": "yes", "source": "OCTA GIS", "source_ref": "AM909_DSCU1837", "tactile_paving": "no"}}, {"type": "node", "id": 708330329, "lat": 33.712468, "lon": -118.0638019, "tags": {"bus": "yes", "highway": "bus_stop", "name": "Pacific Coast-Warner", "network": "OC Bus", "network:wikidata": "Q6593059", "operator": "Orange County Transportation Authority", "operator:short": "OCTA", "operator:wikidata": "Q7099595", "public_transport": "platform", "ref": "2987", "shelter": "yes", "source": "OCTA GIS", "source_ref": "AM909_DSCU1825"}}, {"type": "node", "id": 708330375, "lat": 33.7174458, "lon": -118.0700071, "tags": {"bus": "yes", "highway": "bus_stop", "name": "Pacific Coast-12th", "network": "OC Bus", "network:wikidata": "Q6593059", "operator": "Orange County Transportation Authority", "operator:short": "OCTA", "operator:wikidata": "Q7099595", "public_transport": "platform", "ref": "5187", "shelter": "no", "source": "OCTA GIS", "source_ref": "AM909_DSCU1870"}}, {"type": "node", "id": 708330405, "lat": 33.7144489, "lon": -118.0664586, "tags": {"bus": "yes", "highway": "bus_stop", "name": "Pacific Coast-6th", "network": "OC Bus", "network:wikidata": "Q6593059", "operator": "Orange County Transportation Authority", "operator:short": "OCTA", "operator:wikidata": "Q7099595", "public_transport": "platform", "ref": "5188", "shelter": "no", "source": "OCTA GIS", "source_ref": "AM909_DSCU1877"}}, {"type": "node", "id": 708715404, "lat": 33.6538887, "lon": -117.9973744, "tags": {"bus": "yes", "highway": "bus_stop", "local_ref": "3", "name": "Pacific Coast-1st", "network": "OC Bus", "network:wikidata": "Q6593059", "operator": "Orange County Transportation Authority", "operator:short": "OCTA", "operator:wikidata": "Q7099595", "public_transport": "platform", "ref": "3004", "shelter": "no", "source": "OCTA GIS", "source_ref": "AM909_DSCU1966"}}, {"type": "node", "id": 708715471, "lat": 33.6558712, "lon": -117.9999968, "tags": {"bus": "yes", "highway": "bus_stop", "name": "Pacific Coast-1st", "network": "OC Bus", "network:wikidata": "Q6593059", "operator": "Orange County Transportation Authority", "operator:short": "OCTA", "operator:wikidata": "Q7099595", "public_transport": "platform", "ref": "2979", "shelter": "no", "source": "OCTA GIS", "source_ref": "AM909_DSCU1959"}}, {"type": "node", "id": 708715544, "lat": 33.6529002, "lon": -117.995412, "tags": {"bus": "yes", "highway": "bus_stop", "name": "Pacific Coast-Huntington", "network": "OC Bus", "network:wikidata": "Q6593059", "operator": "Orange County Transportation Authority", "operator:short": "OCTA", "operator:wikidata": "Q7099595", "public_transport": "platform", "ref": "3005", "shelter": "no", "source": "OCTA GIS", "source_ref": "AM909_DSCU1967"}}, {"type": "node", "id": 709966179, "lat": 33.6390146, "lon": -117.9723549, "tags": {"bus": "yes", "highway": "bus_stop", "name": "Pacific Coast-Magnolia", "network": "OC Bus", "network:wikidata": "Q6593059", "operator": "Orange County Transportation Authority", "operator:short": "OCTA", "operator:wikidata": "Q7099595", "public_transport": "platform", "ref": "3009", "shelter": "no", "source": "OCTA GIS", "source_ref": "AM909_DSCU2027"}}, {"type": "node", "id": 709966577, "lat": 33.6433318, "lon": -117.97994, "tags": {"bus": "yes", "highway": "bus_stop", "name": "Pacific Coast-Newland", "network": "OC Bus", "network:wikidata": "Q6593059", "operator": "Orange County Transportation Authority", "operator:short": "OCTA", "operator:wikidata": "Q7099595", "public_transport": "platform", "ref": "3008", "shelter": "no", "source": "OCTA GIS", "source_ref": "AM909_DSCU2021"}}, {"type": "node", "id": 728060667, "lat": 34.0118062, "lon": -118.085286, "tags": {"bus": "yes", "highway": "bus_stop", "name": "Montebello", "public_transport": "platform", "ref": "40;342", "shelter": "no", "source": "yahoo_imagery;survey;image", "source_ref": "AM909_DSCU5177", "towards": "Norwalk Blvd / Whittier;Express to Norwalk Blvd / Whittier"}}, {"type": "node", "id": 728060697, "lat": 34.01133, "lon": -118.082797, "tags": {"bus": "yes", "highway": "bus_stop", "name": "Montebello", "public_transport": "platform", "ref": "40", "shelter": "no", "source": "yahoo_imagery;survey;image", "source_ref": "AM909_DSCU5179"}}, {"type": "node", "id": 728122591, "lat": 34.0090839, "lon": -118.076586, "tags": {"bus": "yes", "highway": "bus_stop", "name": "Montebello", "public_transport": "platform", "ref": "40;342", "shelter": "no", "source": "yahoo_imagery;survey;image", "source_ref": "AM909_DSCU5198", "towards": "Norwalk Blvd / Whittier;Express to Norwalk Blvd / Whittier"}}, {"type": "node", "id": 728122633, "lat": 34.0037613, "lon": -118.063114, "tags": {"bus": "yes", "highway": "bus_stop", "name": "Montebello 40", "public_transport": "platform", "ref": "40", "shelter": "no", "source": "yahoo_imagery;survey;image", "source_ref": "AM909_DSCU5211", "towards": "Norwalk Blvd / Whittier"}}, {"type": "node", "id": 728122649, "lat": 34.0081447, "lon": -118.073495, "tags": {"bus": "yes", "highway": "bus_stop", "name": "Montebello", "public_transport": "platform", "ref": "40", "shelter": "no", "source": "yahoo_imagery;survey;image", "source_ref": "AM909_DSCU5202"}}, {"type": "node", "id": 734166564, "lat": 34.030829, "lon": -118.128621, "tags": {"bus": "yes", "highway": "bus_stop", "name": "Montebello", "network": "Metro Local", "network:wikidata": "Q77610", "operator": "Los Angeles County Metropolitan Transportation Authority", "operator:wikidata": "Q3259702", "public_transport": "platform", "ref": "30", "shelter": "no", "source": "usgs_imagery;survey;image", "source_ref": "AM909_DSCU3015", "towards": "Huntington Dr/San Marino"}}, {"type": "node", "id": 734166599, "lat": 34.0220011, "lon": -118.133984, "tags": {"bus": "yes", "highway": "bus_stop", "name": "Montebello", "public_transport": "platform", "ref": "30", "shelter": "yes", "source": "usgs_imagery;survey;image", "source_ref": "AM909_DSCU3001", "towards": "Huntington Dr/San Marino"}}, {"type": "node", "id": 734166659, "lat": 34.0085416, "lon": -118.1312296, "tags": {"bus": "yes", "highway": "bus_stop", "name": "Garfield & Ferguson (Northbound)", "network": "Metro Local;City of Commerce Transit;Montebello Bus Lines", "network:wikidata": "Q77610;Q6905005", "operator": "Los Angeles County Metropolitan Transportation Authority;City of Montebello", "operator:wikidata": "Q3259702;Q664503", "public_transport": "platform", "ref": "386", "shelter": "no", "source": "usgs_imagery;survey;image", "source_ref": "AM909_DSCU2982", "towards": "Wilshire/Western/Red Line Station;8th St & Western Ave;Huntington Dr/San Marino;Montebello Town Ctr/Montebello"}}, {"type": "node", "id": 734166690, "lat": 34.0370392, "lon": -118.130338, "tags": {"bus": "yes", "highway": "bus_stop", "name": "Montebello", "network": "Metro Local", "network:wikidata": "Q77610", "operator": "Los Angeles County Metropolitan Transportation Authority", "operator:wikidata": "Q3259702", "public_transport": "platform", "ref": "30", "shelter": "no", "source": "usgs_imagery;survey;image", "source_ref": "AM909_DSCU3032", "towards": "Huntington Dr/San Marino"}}, {"type": "node", "id": 734166698, "lat": 34.033844, "lon": -118.130005, "tags": {"bus": "yes", "highway": "bus_stop", "name": "Montebello", "network": "Metro Local", "network:wikidata": "Q77610", "operator": "Los Angeles County Metropolitan Transportation Authority", "operator:wikidata": "Q3259702", "public_transport": "platform", "ref": "30", "shelter": "no", "source": "usgs_imagery;survey;image", "source_ref": "AM909_DSCU3021", "towards": "Huntington Dr/San Marino"}}, {"type": "node", "id": 734166705, "lat": 34.0442263, "lon": -118.1283106, "tags": {"bus": "yes", "highway": "bus_stop", "name": "Garfield Avenue S and Coral View Street", "public_transport": "platform", "ref": "30", "shelter": "no", "source": "usgs_imagery;survey;image", "source_ref": "AM909_DSCU3042", "towards": "Huntington Dr/San Marino"}}, {"type": "node", "id": 734166773, "lat": 34.0137056, "lon": -118.130146, "tags": {"bus": "yes", "highway": "bus_stop", "name": "Metro", "network": "Metro Local", "network:wikidata": "Q77610", "operator": "Los Angeles County Metropolitan Transportation Authority", "operator:wikidata": "Q3259702", "public_transport": "platform", "ref": "18", "shelter": "no", "source": "usgs_imagery;survey;image", "source_ref": "AM909_DSCU2990", "towards": "Wilshire/Western/Red Line Station"}}, {"type": "node", "id": 734166784, "lat": 34.0369771, "lon": -118.130626, "tags": {"bus": "yes", "highway": "bus_stop", "name": "Montebello", "network": "Metro Local", "network:wikidata": "Q77610", "operator": "Los Angeles County Metropolitan Transportation Authority", "operator:wikidata": "Q3259702", "public_transport": "platform", "ref": "30", "shelter": "no", "source": "usgs_imagery;survey;image", "source_ref": "AM909_DSCU3025"}}, {"type": "node", "id": 734166797, "lat": 34.0366179, "lon": -118.130878, "tags": {"bus": "yes", "highway": "bus_stop", "name": "Metro 68", "network": "Metro Local", "network:wikidata": "Q77610", "operator": "Los Angeles County Metropolitan Transportation Authority", "operator:wikidata": "Q3259702", "public_transport": "platform", "ref": "287", "shelter": "yes", "source": "usgs_imagery;survey;image", "source_ref": "AM909_DSCU3030"}}, {"type": "node", "id": 734166833, "lat": 34.0271315, "lon": -118.128762, "tags": {"bus": "yes", "highway": "bus_stop", "name": "Montebello", "public_transport": "platform", "ref": "30", "shelter": "no", "source": "usgs_imagery;survey;image", "source_ref": "AM909_DSCU3009", "towards": "Huntington Dr/San Marino"}}, {"type": "node", "id": 734166841, "lat": 34.0059981, "lon": -118.1312154, "tags": {"bus": "yes", "highway": "bus_stop", "name": "Garfield & Flotilla Street (Northbound)", "network": "Montebello Bus Lines;City of Commerce Transit;Metro Local", "network:wikidata": "Q6905005;Q77610", "operator": "City of Montebello;Los Angeles County Metropolitan Transportation Authority", "operator:wikidata": "Q664503;Q3259702", "public_transport": "platform", "ref": "1076", "shelter": "no", "source": "usgs_imagery;survey;image", "source_ref": "AM909_DSCU2981", "towards": "Huntington Dr/San Marino;Montebello Town Ctr/Montebello;Wilshire/Western/Red Line Station;8th St & Western Ave"}}, {"type": "node", "id": 734166844, "lat": 34.0118185, "lon": -118.130612, "tags": {"bus": "yes", "highway": "bus_stop", "name": "Montebello", "public_transport": "platform", "ref": "30;70", "shelter": "yes", "source": "usgs_imagery;survey;image", "source_ref": "AM909_DSCU2986", "towards": "Huntington Dr/San Marino;Montebello Town Ctr/Montebello"}}, {"type": "node", "id": 734166848, "lat": 34.0180768, "lon": -118.130293, "tags": {"bus": "yes", "highway": "bus_stop", "name": "Montebello", "public_transport": "platform", "ref": "30", "shelter": "no", "source": "usgs_imagery;survey;image", "source_ref": "AM909_DSCU2996", "towards": "Huntington Dr/San Marino"}}, {"type": "node", "id": 734166873, "lat": 34.0255365, "lon": -118.130508, "tags": {"bus": "yes", "highway": "bus_stop", "name": "Montebello", "public_transport": "platform", "ref": "30", "shelter": "no", "source": "usgs_imagery;survey;image", "source_ref": "AM909_DSCU3007", "towards": "Huntington Dr/San Marino"}}, {"type": "node", "id": 734166888, "lat": 34.024121, "lon": -118.132289, "tags": {"bus": "yes", "highway": "bus_stop", "name": "Montebello", "public_transport": "platform", "ref": "30", "shelter": "no", "source": "usgs_imagery;survey;image", "source_ref": "AM909_DSCU3006", "towards": "Huntington Dr/San Marino"}}, {"type": "node", "id": 734166897, "lat": 34.0408703, "lon": -118.129019, "tags": {"bus": "yes", "highway": "bus_stop", "name": "Montebello", "network": "Metro Local", "network:wikidata": "Q77610", "operator": "Los Angeles County Metropolitan Transportation Authority", "operator:wikidata": "Q3259702", "public_transport": "platform", "ref": "30", "shelter": "no", "source": "usgs_imagery;survey;image", "source_ref": "AM909_DSCU3039", "towards": "Huntington Dr/San Marino"}}, {"type": "node", "id": 734166902, "lat": 34.0196238, "lon": -118.132878, "tags": {"bus": "yes", "highway": "bus_stop", "name": "Montebello", "public_transport": "platform", "ref": "30", "shelter": "no", "source": "usgs_imagery;survey;image", "source_ref": "AM909_DSCU2998", "towards": "Huntington Dr/San Marino"}}, {"type": "node", "id": 734166910, "lat": 34.0338332, "lon": -118.130004, "tags": {"bus": "yes", "highway": "bus_stop", "name": "Metro 68", "network": "Metro Local", "network:wikidata": "Q77610", "operator": "Los Angeles County Metropolitan Transportation Authority", "operator:wikidata": "Q3259702", "public_transport": "platform", "ref": "287", "shelter": "no", "source": "usgs_imagery;survey;image", "source_ref": "AM909_DSCU3021"}}, {"type": "node", "id": 734167009, "lat": 34.0137354, "lon": -118.130142, "tags": {"bus": "yes", "highway": "bus_stop", "name": "Montebello", "public_transport": "platform", "ref": "30", "shelter": "no", "source": "usgs_imagery;survey;image", "source_ref": "AM909_DSCU2990", "towards": "Huntington Dr/San Marino"}}, {"type": "node", "id": 734167092, "lat": 34.0367976, "lon": -118.130949, "tags": {"bench": "yes", "bin": "yes", "bus": "yes", "highway": "bus_stop", "lit": "no", "name": "Metro 68", "network": "Metro Local", "network:wikidata": "Q77610", "operator": "Los Angeles County Metropolitan Transportation Authority", "operator:wikidata": "Q3259702", "public_transport": "platform", "ref": "287", "shelter": "no", "source": "usgs_imagery;survey;image", "source_ref": "AM909_DSCU3026", "tactile_paving": "no", "towards": "Indiana Station"}}, {"type": "node", "id": 734167145, "lat": 34.011785, "lon": -118.130616, "tags": {"bus": "yes", "highway": "bus_stop", "name": "Metro", "network": "Metro Local", "network:wikidata": "Q77610", "operator": "Los Angeles County Metropolitan Transportation Authority", "operator:wikidata": "Q3259702", "public_transport": "platform", "shelter": "yes", "source": "usgs_imagery;survey;image", "source_ref": "AM909_DSCU2986"}}, {"type": "node", "id": 734167160, "lat": 34.0141126, "lon": -118.130042, "tags": {"bus": "yes", "highway": "bus_stop", "name": "Montebello", "public_transport": "platform", "ref": "70", "shelter": "yes", "source": "usgs_imagery;survey;image", "source_ref": "AM909_DSCU2992", "towards": "Montebello Town Ctr/Montebello"}}, {"type": "node", "id": 734167181, "lat": 34.014939, "lon": -118.129756, "tags": {"bus": "yes", "highway": "bus_stop", "name": "Montebello", "public_transport": "platform", "ref": "30", "shelter": "yes", "source": "usgs_imagery;survey;image", "source_ref": "AM909_DSCU2993", "towards": "Huntington Dr/San Marino"}}, {"type": "node", "id": 734684743, "lat": 34.0510635, "lon": -118.1272001, "tags": {"bus": "yes", "highway": "bus_stop", "name": "Garfield Avenue S and Maronde Way", "public_transport": "platform", "ref": "30", "shelter": "no", "source": "yahoo_imagery;survey;image", "source_ref": "AM909_DSCU3052", "towards": "Huntington Dr/San Marino"}}, {"type": "node", "id": 734684778, "lat": 34.0474112, "lon": -118.1286241, "tags": {"bus": "yes", "highway": "bus_stop", "name": "Garfield/El Repetto", "network": "Montebello Bus Lines", "network:wikidata": "Q6905005", "operator": "City of Montebello", "operator:wikidata": "Q664503", "public_transport": "platform", "ref": "30", "shelter": "no", "source": "usgs_imagery;survey;image", "source_ref": "AM909_DSCU3050", "towards": "Huntington Dr/San Marino"}}, {"type": "node", "id": 739082469, "lat": 34.0496917, "lon": -118.090637, "tags": {"bus": "yes", "highway": "bus_stop", "name": "Montebello", "public_transport": "platform", "ref": "20", "shelter": "no", "source": "usgs_imagery;survey;image", "source_ref": "AM909_DSCU3437"}}, {"type": "node", "id": 739082487, "lat": 34.0515138, "lon": -118.090656, "tags": {"bus": "yes", "highway": "bus_stop", "name": "Metro", "public_transport": "platform", "ref": "287", "shelter": "yes", "source": "usgs_imagery;survey;image", "source_ref": "AM909_DSCU3434", "towards": "Montebello Center / Indiana Station"}}, {"type": "node", "id": 739082495, "lat": 34.0496654, "lon": -118.090633, "tags": {"bus": "yes", "highway": "bus_stop", "name": "Metro", "public_transport": "platform", "ref": "287", "shelter": "no", "source": "usgs_imagery;survey;image", "source_ref": "AM909_DSCU3437", "towards": "Montebello Center / Indiana Station"}}, {"type": "node", "id": 739082508, "lat": 34.051545, "lon": -118.0906586, "tags": {"bus": "yes", "highway": "bus_stop", "name": "Montebello", "public_transport": "platform", "ref": "20", "shelter": "yes", "source": "usgs_imagery;survey;image", "source_ref": "AM909_DSCU3434"}}, {"type": "node", "id": 739082526, "lat": 34.0517869, "lon": -118.086741, "tags": {"bus": "yes", "highway": "bus_stop", "name": "Metro", "public_transport": "platform", "ref": "287", "shelter": "no", "source": "usgs_imagery;survey;image", "source_ref": "AM909_DSCU3431", "towards": "Montebello Center / Indiana Station"}}, {"type": "node", "id": 739082534, "lat": 34.0515275, "lon": -118.084309, "tags": {"bus": "yes", "highway": "bus_stop", "name": "Metro", "public_transport": "platform", "ref": "287", "shelter": "no", "source": "usgs_imagery;survey;image", "source_ref": "AM909_DSCU3418", "towards": "El Monte Station"}}, {"type": "node", "id": 739082540, "lat": 34.0517797, "lon": -118.084735, "tags": {"bus": "yes", "highway": "bus_stop", "name": "Metro", "public_transport": "platform", "ref": "287", "shelter": "no", "source": "usgs_imagery;survey;image", "source_ref": "AM909_DSCU3430", "towards": "Montebello Center / Indiana Station"}}, {"type": "node", "id": 739410954, "lat": 34.0472288, "lon": -118.0906413, "tags": {"bus": "yes", "highway": "bus_stop", "name": "Metro Local", "public_transport": "platform", "ref": "287", "shelter": "no", "source": "usgs_imagery;survey;image", "source_ref": "AM909_DSCU3475", "towards": "Montebello Center (Mon-Fri) / Indiana Station"}}, {"type": "node", "id": 739410973, "lat": 34.0419055, "lon": -118.083892, "tags": {"bus": "yes", "highway": "bus_stop", "name": "Montebello", "public_transport": "platform", "ref": "20", "shelter": "no", "source": "usgs_imagery;survey;image", "source_ref": "AM909_DSCU3464", "towards": "Las Tunas Dr / San Gabriel"}}, {"type": "node", "id": 739410974, "lat": 34.0441578, "lon": -118.090733, "tags": {"bus": "yes", "highway": "bus_stop", "name": "Metro Local", "public_transport": "platform", "ref": "287", "shelter": "yes", "source": "usgs_imagery;survey;image", "source_ref": "AM909_DSCU3480", "towards": "Montebello Center (Mon-Fri) / Indiana Station"}}, {"type": "node", "id": 739410977, "lat": 34.0473173, "lon": -118.090637, "tags": {"bus": "yes", "highway": "bus_stop", "name": "Montebello", "public_transport": "platform", "ref": "20", "shelter": "no", "source": "usgs_imagery;survey;image", "source_ref": "AM909_DSCU3475", "towards": "Telegraph Road / Montebello"}}, {"type": "node", "id": 739410978, "lat": 34.0429811, "lon": -118.086489, "tags": {"bus": "yes", "highway": "bus_stop", "name": "Montebello", "public_transport": "platform", "ref": "20", "shelter": "no", "source": "usgs_imagery;survey;image", "source_ref": "AM909_DSCU3466", "towards": "Las Tunas Dr / San Gabriel"}}, {"type": "node", "id": 739410984, "lat": 34.0412312, "lon": -118.08239, "tags": {"bus": "yes", "highway": "bus_stop", "name": "Montebello", "public_transport": "platform", "ref": "20", "shelter": "no", "source": "usgs_imagery;survey;image", "source_ref": "AM909_DSCU3460", "towards": "Las Tunas Dr / San Gabriel"}}, {"type": "node", "id": 739410986, "lat": 34.0418321, "lon": -118.084412, "tags": {"bus": "yes", "highway": "bus_stop", "name": "Montebello", "public_transport": "platform", "ref": "20", "shelter": "no", "source": "usgs_imagery;survey;image", "source_ref": "AM909_DSCU3456"}}, {"type": "node", "id": 748763936, "lat": 33.8894903, "lon": -118.116906, "tags": {"bus": "yes", "highway": "bus_stop", "public_transport": "platform"}}, {"type": "node", "id": 748763956, "lat": 33.8892409, "lon": -118.121721, "tags": {"bus": "yes", "highway": "bus_stop", "public_transport": "platform"}}, {"type": "node", "id": 748764123, "lat": 33.8894658, "lon": -118.122281, "tags": {"bus": "yes", "highway": "bus_stop", "public_transport": "platform"}}, {"type": "node", "id": 748764294, "lat": 33.8889537, "lon": -118.125162, "tags": {"bus": "yes", "highway": "bus_stop", "public_transport": "platform"}}, {"type": "node", "id": 748764420, "lat": 33.8879829, "lon": -118.125377, "tags": {"bus": "yes", "highway": "bus_stop", "public_transport": "platform"}}, {"type": "node", "id": 768090123, "lat": 34.017577, "lon": -118.040361, "tags": {"bus": "yes", "highway": "bus_stop", "name": "Rose Hills Gate I", "public_transport": "platform"}}, {"type": "node", "id": 775408330, "lat": 33.8050875, "lon": -117.911496, "tags": {"bus": "yes", "highway": "bus_stop", "public_transport": "platform"}}, {"type": "node", "id": 781736948, "lat": 34.0089296, "lon": -118.157893, "tags": {"bus": "yes", "highway": "bus_stop", "name": "Metro;Commerce", "public_transport": "platform", "ref": "62;Orange Line", "shelter": "no", "source": "usgs_imagery;survey;image", "source_ref": "AM909_DSCV1419"}}, {"type": "node", "id": 794399704, "lat": 34.0389649, "lon": -118.002367, "tags": {"bus": "yes", "highway": "bus_stop", "name": "Foothill Transit 274", "network": "Foothill Transit", "network:wikidata": "Q5466493", "operator": "Foothill Transit", "public_transport": "platform", "source": "survey"}}, {"type": "node", "id": 794442183, "lat": 34.0348618, "lon": -118.0133, "tags": {"bus": "yes", "highway": "bus_stop", "public_transport": "platform"}}, {"type": "node", "id": 794442208, "lat": 34.0360399, "lon": -118.009899, "tags": {"bus": "yes", "highway": "bus_stop", "public_transport": "platform", "shelter": "yes", "source": "survey"}}, {"type": "node", "id": 794442215, "lat": 34.0378358, "lon": -118.004744, "tags": {"bus": "yes", "highway": "bus_stop", "public_transport": "platform"}}, {"type": "node", "id": 794442219, "lat": 34.0385115, "lon": -118.002818, "tags": {"bus": "yes", "highway": "bus_stop", "public_transport": "platform", "shelter": "yes", "source": "survey"}}, {"type": "node", "id": 794442229, "lat": 34.0403874, "lon": -117.99865, "tags": {"bus": "yes", "highway": "bus_stop", "public_transport": "platform", "shelter": "yes", "source": "survey"}}, {"type": "node", "id": 794442257, "lat": 34.0376535, "lon": -118.006042, "tags": {"bus": "yes", "highway": "bus_stop", "name": "Foothill Transit 274", "network": "Foothill Transit", "network:wikidata": "Q5466493", "operator": "Foothill Transit", "public_transport": "platform", "source": "survey"}}, {"type": "node", "id": 794442263, "lat": 34.0366711, "lon": -118.008874, "tags": {"bus": "yes", "highway": "bus_stop", "name": "Foothill Transit 274", "network": "Foothill Transit", "network:wikidata": "Q5466493", "operator": "Foothill Transit", "public_transport": "platform", "source": "survey"}}, {"type": "node", "id": 794442276, "lat": 34.0348752, "lon": -118.013976, "tags": {"bus": "yes", "highway": "bus_stop", "public_transport": "platform", "shelter": "yes", "source": "survey"}}, {"type": "node", "id": 794442301, "lat": 34.0321411, "lon": -118.020655, "tags": {"bus": "yes", "highway": "bus_stop", "name": "Foothill Transit 274", "network": "Foothill Transit", "network:wikidata": "Q5466493", "operator": "Foothill Transit", "public_transport": "platform"}}, {"type": "node", "id": 836910738, "lat": 33.8748723, "lon": -117.8895026, "tags": {"bus": "yes", "highway": "bus_stop", "name": "State College-Chapman", "network": "OC Bus", "network:wikidata": "Q6593059", "operator": "Orange County Transportation Authority", "operator:short": "OCTA", "operator:wikidata": "Q7099595", "public_transport": "platform", "ref": "1931", "source": "OCTA GIS"}}, {"type": "node", "id": 857781293, "lat": 34.0522392, "lon": -118.042537, "tags": {"bus": "yes", "highway": "bus_stop", "name": "Foothill Transit 269", "network": "Foothill Transit", "network:wikidata": "Q5466493", "operator": "Foothill Transit", "public_transport": "platform", "ref": "269", "shelter": "yes", "source": "usgs_imagery;survey;image", "source_ref": "AM909_DSCU3740", "towards": "Montebello Town Center"}}, {"type": "node", "id": 857781301, "lat": 34.0402468, "lon": -118.032085, "tags": {"bus": "yes", "fixme": "location is imprecise", "highway": "bus_stop", "name": "Foothill", "network": "Foothill Transit", "network:wikidata": "Q5466493", "public_transport": "platform", "ref": "269", "shelter": "yes", "source": "usgs_imagery;survey;image", "source_ref": "AM909_DSCU3746", "towards": "Montebello Town Center"}}, {"type": "node", "id": 858012879, "lat": 34.0442546, "lon": -118.046148, "tags": {"bus": "yes", "highway": "bus_stop", "name": "Foothill Transit 269", "network": "Foothill Transit", "network:wikidata": "Q5466493", "operator": "Foothill Transit", "public_transport": "platform", "shelter": "yes", "source": "usgs_imagery;survey;image", "source_ref": "AM909_DSCU3757"}}, {"type": "node", "id": 858012916, "lat": 34.0412304, "lon": -118.049859, "tags": {"bus": "yes", "highway": "bus_stop", "name": "Foothill Transit 269", "network": "Foothill Transit", "network:wikidata": "Q5466493", "operator": "Foothill Transit", "public_transport": "platform", "ref": "269", "shelter": "yes", "source": "usgs_imagery;survey;image", "source_ref": "AM909_DSCU3764", "towards": "Montebello Town Center"}}, {"type": "node", "id": 858209031, "lat": 34.0319668, "lon": -118.052454, "tags": {"bus": "yes", "highway": "bus_stop", "name": "Foothill Transit 268", "network": "Foothill Transit", "network:wikidata": "Q5466493", "operator": "Foothill Transit", "public_transport": "platform", "ref": "269", "shelter": "no", "source": "usgs_imagery;survey;image", "source_ref": "AM909_DSCU3784"}}, {"type": "node", "id": 858743647, "lat": 34.0325078, "lon": -118.052966, "tags": {"bus": "yes", "highway": "bus_stop", "name": "Foothill Transit 268", "network": "Foothill Transit", "network:wikidata": "Q5466493", "operator": "Foothill Transit", "public_transport": "platform", "ref": "269", "shelter": "no", "source": "usgs_imagery;survey;image", "source_ref": "AM909_DSCU3798"}}, {"type": "node", "id": 859558837, "lat": 34.0001737, "lon": -118.084202, "tags": {"bus": "yes", "highway": "bus_stop", "name": "Metro", "network": "Metro Local", "network:wikidata": "Q77610", "operator": "Los Angeles County Metropolitan Transportation Authority", "operator:wikidata": "Q3259702", "public_transport": "platform", "ref": "266", "shelter": "no", "source": "usgs_imagery;survey;image", "source_ref": "AM909_DSCU3863"}}, {"type": "node", "id": 859558923, "lat": 34.0016608, "lon": -118.083634, "tags": {"bench": "yes", "bin": "yes", "bus": "yes", "check_date:shelter": "2022-05-23", "highway": "bus_stop", "name": "Metro", "public_transport": "platform", "ref": "266", "shelter": "yes", "source": "usgs_imagery;survey;image", "source_ref": "AM909_DSCU3845", "tactile_paving": "no", "towards": "Sierra Madre Villa / Gold Line Station"}}, {"type": "node", "id": 859558931, "lat": 34.0099142, "lon": -118.080897, "tags": {"bus": "yes", "highway": "bus_stop", "name": "Metro", "public_transport": "platform", "shelter": "yes", "source": "usgs_imagery;survey;image", "source_ref": "AM909_DSCU3853"}}, {"type": "node", "id": 859558940, "lat": 33.9962185, "lon": -118.08567, "tags": {"bus": "yes", "highway": "bus_stop", "name": "Metro", "network": "Metro Local", "network:wikidata": "Q77610", "operator": "Los Angeles County Metropolitan Transportation Authority", "operator:wikidata": "Q3259702", "public_transport": "platform", "shelter": "no", "source": "usgs_imagery;survey;image", "source_ref": "AM909_DSCU3867"}}, {"type": "node", "id": 859559090, "lat": 34.0075221, "lon": -118.082071, "tags": {"bus": "yes", "highway": "bus_stop", "name": "Metro;Montebello", "public_transport": "platform", "ref": "266;60", "shelter": "no", "source": "usgs_imagery;survey;image", "source_ref": "AM909_DSCU3859"}}, {"type": "node", "id": 859559126, "lat": 34.0165447, "lon": -118.079245, "tags": {"bench": "yes", "bus": "yes", "highway": "bus_stop", "name": "Metro", "public_transport": "platform", "ref": "266", "shelter": "yes", "source": "usgs_imagery;survey;image", "source_ref": "AM909_DSCU3823"}}, {"type": "node", "id": 859559128, "lat": 33.9867045, "lon": -118.094589, "tags": {"bus": "yes", "highway": "bus_stop", "name": "Metro", "network": "Metro Local", "network:wikidata": "Q77610", "operator": "Los Angeles County Metropolitan Transportation Authority", "operator:wikidata": "Q3259702", "public_transport": "platform", "ref": "266", "shelter": "no", "source": "usgs_imagery;survey;image", "source_ref": "AM909_DSCU3879"}}, {"type": "node", "id": 862963179, "lat": 33.9834365, "lon": -118.096731, "tags": {"bus": "yes", "highway": "bus_stop", "name": "Metro", "network": "Metro Local", "network:wikidata": "Q77610", "operator": "Los Angeles County Metropolitan Transportation Authority", "operator:wikidata": "Q3259702", "public_transport": "platform", "shelter": "yes", "source": "usgs_imagery;survey;image", "source_ref": "AM909_DSCU3893"}}, {"type": "node", "id": 862963207, "lat": 33.9835467, "lon": -118.097423, "tags": {"bus": "yes", "highway": "bus_stop", "name": "Montebello", "public_transport": "platform", "shelter": "yes", "source": "usgs_imagery;survey;image", "source_ref": "AM909_DSCU3893"}}, {"type": "node", "id": 862963241, "lat": 33.9822423, "lon": -118.09799, "tags": {"bus": "yes", "highway": "bus_stop", "name": "Metro", "network": "Metro Local", "network:wikidata": "Q77610", "operator": "Los Angeles County Metropolitan Transportation Authority", "operator:wikidata": "Q3259702", "public_transport": "platform", "shelter": "yes", "source": "usgs_imagery;survey;image", "source_ref": "AM909_DSCU3885"}}, {"type": "node", "id": 864088853, "lat": 33.9852501, "lon": -118.100588, "tags": {"bus": "yes", "highway": "bus_stop", "name": "Montebello", "public_transport": "platform", "ref": "50", "shelter": "no", "source": "usgs_imagery;survey;image", "source_ref": "AM909_DSCU3898"}}, {"type": "node", "id": 864088932, "lat": 34.0005777, "lon": -118.133195, "tags": {"bus": "yes", "highway": "bus_stop", "name": "Montebello", "public_transport": "platform", "ref": "50", "shelter": "no", "source": "usgs_imagery;survey;image", "source_ref": "AM909_DSCU3938"}}, {"type": "node", "id": 864089014, "lat": 33.9984574, "lon": -118.127129, "tags": {"bus": "yes", "highway": "bus_stop", "name": "Montebello", "public_transport": "platform", "shelter": "no", "source": "usgs_imagery;survey;image", "source_ref": "AM909_DSCU3931"}}, {"type": "node", "id": 912972060, "lat": 33.8477378, "lon": -118.133613, "tags": {"bus": "yes", "highway": "bus_stop", "public_transport": "platform"}}, {"type": "node", "id": 912972068, "lat": 33.8498596, "lon": -118.133617, "tags": {"bus": "yes", "highway": "bus_stop", "public_transport": "platform"}}, {"type": "node", "id": 912972072, "lat": 33.8500255, "lon": -118.133883, "tags": {"bus": "yes", "highway": "bus_stop", "public_transport": "platform"}}, {"type": "node", "id": 912972074, "lat": 33.8533022, "lon": -118.13387, "tags": {"bus": "yes", "highway": "bus_stop", "public_transport": "platform"}}, {"type": "node", "id": 912972077, "lat": 33.8539783, "lon": -118.133635, "tags": {"bus": "yes", "highway": "bus_stop", "public_transport": "platform"}}, {"type": "node", "id": 912972083, "lat": 33.8472238, "lon": -118.143035, "tags": {"bus": "yes", "highway": "bus_stop", "public_transport": "platform", "shelter": "yes"}}, {"type": "node", "id": 912972085, "lat": 33.8472254, "lon": -118.138656, "tags": {"bus": "yes", "highway": "bus_stop", "public_transport": "platform"}}, {"type": "node", "id": 912972086, "lat": 33.8471998, "lon": -118.134319, "tags": {"bus": "yes", "highway": "bus_stop", "public_transport": "platform"}}, {"type": "node", "id": 964666617, "lat": 33.8650303, "lon": -117.998308, "tags": {"bus": "yes", "highway": "bus_stop", "name": "Metro", "network": "Metro Local", "public_transport": "platform", "ref": "460", "shelter": "no", "source": "usgs_imagery;survey;image", "source_ref": "AM909_DSCW2152", "towards": "Disneyland"}}, {"type": "node", "id": 964757018, "lat": 33.8465361, "lon": -117.9932759, "tags": {"bench": "yes", "bin": "yes", "bus": "yes", "highway": "bus_stop", "lit": "yes", "name": "La Palma-Stanton", "network": "OC Bus", "network:wikidata": "Q6593059", "operator": "Orange County Transportation Authority", "operator:short": "OCTA", "operator:wikidata": "Q7099595", "public_transport": "platform", "ref": "0843", "route_ref": "38", "shelter": "no", "source": "usgs_imagery;survey;image", "source_ref": "AM909_DSCW2185", "towards": "Disneyland"}}, {"type": "node", "id": 964757428, "lat": 33.8596104, "lon": -117.998263, "tags": {"bus": "yes", "highway": "bus_stop", "network": "Metro Local", "network:wikidata": "Q77610", "operator": "Los Angeles County Metropolitan Transportation Authority", "operator:wikidata": "Q3259702", "public_transport": "platform", "ref": "460", "shelter": "no", "source": "usgs_imagery;survey;image", "source_ref": "AM909_DSCW2162", "towards": "Disneyland"}}, {"type": "node", "id": 1013277064, "lat": 33.9515078, "lon": -118.1828587, "tags": {"bus": "yes", "highway": "bus_stop", "name": "Atlantic/Firestone", "public_transport": "platform"}}, {"type": "node", "id": 1013277267, "lat": 33.9516674, "lon": -118.18323, "tags": {"bus": "yes", "highway": "bus_stop", "name": "Atlantic/Firestone;Atlantic @ Firestone", "network": "Get Around Town Express", "public_transport": "platform"}}, {"type": "node", "id": 1013277524, "lat": 33.9522777, "lon": -118.184456, "tags": {"bus": "yes", "highway": "bus_stop", "name": "Firestone / Atlantic;Firestone Boulevard / Atlantic Avenue", "network": "Metro Local;Get Around Town Express", "network:wikidata": "Q77610", "operator": "Los Angeles County Metropolitan Transportation Authority", "operator:wikidata": "Q3259702", "public_transport": "platform", "ref": "10450", "shelter": "yes"}}, {"type": "node", "id": 1013277559, "lat": 33.9518402, "lon": -118.183496, "tags": {"bus": "yes", "highway": "bus_stop", "name": "Firestone / Atlantic", "network": "Metro Local", "network:wikidata": "Q77610", "operator": "Los Angeles County Metropolitan Transportation Authority", "operator:wikidata": "Q3259702", "public_transport": "platform", "ref": "1896", "shelter": "yes"}}, {"type": "node", "id": 1013279021, "lat": 33.9523185, "lon": -118.1881672, "tags": {"bus": "yes", "highway": "bus_stop", "name": "Firestone/Annetta;Firestone @ Annetta", "network": "Get Around Town Express", "public_transport": "platform"}}, {"type": "node", "id": 1013279292, "lat": 33.9525288, "lon": -118.1874554, "tags": {"bus": "yes", "highway": "bus_stop", "public_transport": "platform"}}, {"type": "node", "id": 1013288263, "lat": 33.9531126, "lon": -118.196217, "tags": {"bus": "yes", "highway": "bus_stop", "name": "Firestone/Otis", "public_transport": "platform"}}, {"type": "node", "id": 1013288355, "lat": 33.9534127, "lon": -118.1969807, "tags": {"bus": "yes", "highway": "bus_stop", "name": "Firestone/Otis", "public_transport": "platform"}}, {"type": "node", "id": 1013289073, "lat": 33.9530414, "lon": -118.193159, "tags": {"bus": "yes", "highway": "bus_stop", "name": "Firestone/Rheem", "public_transport": "platform"}}, {"type": "node", "id": 1013289145, "lat": 33.9527744, "lon": -118.19332, "tags": {"bus": "yes", "highway": "bus_stop", "name": "Firestone/Rheem", "public_transport": "platform"}}, {"type": "node", "id": 1111404288, "lat": 33.8566126, "lon": -117.9241264, "tags": {"bus": "yes", "highway": "bus_stop", "name": "Harbor-Orangefair", "network": "OC Bus", "network:wikidata": "Q6593059", "operator": "Orange County Transportation Authority", "operator:short": "OCTA", "operator:wikidata": "Q7099595", "public_transport": "platform", "ref": "1804", "shelter": "yes", "source": "OCTA GIS", "source_ref": "AM909_DSCW5576"}}, {"type": "node", "id": 1219383927, "lat": 34.0123655, "lon": -118.162877, "tags": {"bench": "no", "bin": "no", "bus": "yes", "departures_board": "no", "highway": "bus_stop", "lit": "yes", "name": "Telegraph / Clela", "network": "Metro Local", "network:wikidata": "Q77610", "operator": "Los Angeles County Metropolitan Transportation Authority", "operator:wikidata": "Q3259702", "public_transport": "platform", "ref": "14858", "shelter": "no", "source": "bing_imagery_0.06m_200801;survey;image", "source_ref": "AM909_DSCW8709", "tactile_paving": "no"}}, {"type": "node", "id": 1219384088, "lat": 34.0136648, "lon": -118.165796, "tags": {"bench": "no", "bin": "no", "bus": "yes", "departures_board": "no", "highway": "bus_stop", "lit": "yes", "name": "Telegraph / Ferris", "network": "Metro Local", "network:wikidata": "Q77610", "operator": "Los Angeles County Metropolitan Transportation Authority", "operator:wikidata": "Q3259702", "public_transport": "platform", "ref": "06485", "shelter": "no", "source": "bing_imagery_0.06m_200801;survey;image", "source_ref": "AM909_DSCW8710", "tactile_paving": "no"}}, {"type": "node", "id": 1234350552, "lat": 33.9248287, "lon": -117.8828649, "tags": {"bus": "yes", "highway": "bus_stop", "network": "Foothill Transit", "network:wikidata": "Q5466493", "public_transport": "platform", "ref": "3084"}}, {"type": "node", "id": 1250585415, "lat": 33.8075085, "lon": -117.91247, "tags": {"bus": "yes", "highway": "bus_stop", "local_ref": "Pumba Guest Shuttle", "name": "Pumba Parking Lot", "public_transport": "platform"}}, {"type": "node", "id": 1250716837, "lat": 33.8094891, "lon": -117.92688, "tags": {"bus": "yes", "highway": "bus_stop", "public_transport": "platform"}}, {"type": "node", "id": 1254947821, "lat": 33.8123387, "lon": -117.918826, "tags": {"bus": "yes", "highway": "bus_stop", "local_ref": "Fire Truck", "name": "The Hub", "public_transport": "platform"}}, {"type": "node", "id": 1254947859, "lat": 33.8122373, "lon": -117.918688, "tags": {"bus": "yes", "highway": "bus_stop", "local_ref": "Omnibus", "name": "The Hub", "public_transport": "platform"}}, {"type": "node", "id": 1254947896, "lat": 33.8101366, "lon": -117.918784, "tags": {"bench": "no", "bin": "no", "bus": "yes", "highway": "bus_stop", "local_ref": "Omnibus", "name": "Town Square", "public_transport": "platform", "ref:signed": "no", "shelter": "no", "tactile_paving": "no"}}, {"type": "node", "id": 1254947916, "lat": 33.8123347, "lon": -117.919106, "tags": {"bus": "yes", "highway": "bus_stop", "local_ref": "Franklin Cars", "name": "The Hub", "public_transport": "platform"}}, {"type": "node", "id": 1254947936, "lat": 33.810231, "lon": -117.919259, "tags": {"bus": "yes", "highway": "bus_stop", "local_ref": "Fire Engines", "name": "Town Square", "public_transport": "platform"}}, {"type": "node", "id": 1254947990, "lat": 33.8101422, "lon": -117.91916, "tags": {"bus": "yes", "highway": "bus_stop", "local_ref": "Horseless Carriage", "name": "Town Square", "public_transport": "platform"}}, {"type": "node", "id": 1266393057, "lat": 33.8188733, "lon": -117.9085404, "tags": {"bench": "no", "bus": "yes", "highway": "bus_stop", "name": "Walmart Neighborhood Market", "public_transport": "platform", "ref": "3006", "shelter": "no"}}, {"type": "node", "id": 1348082495, "lat": 33.81044, "lon": -117.9163441, "tags": {"bus": "yes", "highway": "bus_stop", "local_ref": "Castmember Shuttle", "name": "Harbor Pointe", "public_transport": "platform"}}, {"type": "node", "id": 1353490795, "lat": 33.8060682, "lon": -117.908233, "tags": {"bus": "yes", "highway": "bus_stop", "name": "Motel 6", "network": "Anaheim Resort Transit", "network:short": "ART", "network:wikidata": "Q4750893", "operator": "Transdev", "public_transport": "platform", "ref": "3016"}}, {"type": "node", "id": 1371451804, "lat": 33.9017644, "lon": -118.2858387, "tags": {"bus": "yes", "highway": "bus_stop", "public_transport": "platform"}}, {"type": "node", "id": 1371451805, "lat": 33.9020333, "lon": -118.2870954, "tags": {"bench": "no", "bin": "no", "bus": "yes", "highway": "bus_stop", "public_transport": "platform", "shelter": "no"}}, {"type": "node", "id": 1374395356, "lat": 33.8009449, "lon": -117.877833}, {"type": "node", "id": 1376356001, "lat": 33.9287533, "lon": -118.282764, "tags": {"bench": "yes", "bus": "yes", "highway": "bus_stop", "name": "Figueroa/Harbor Freeway", "network": "Metro Local;Torrance Transit;GTrans", "network:wikidata": "Q77610;Q7826932;Q5522428", "operator": "Los Angeles County Metropolitan Transportation Authority;City of Gardena", "operator:wikidata": "Q3259702;Q846409", "public_transport": "platform", "route_ref": "81"}}, {"type": "node", "id": 1376437726, "lat": 33.9307902, "lon": -118.2824733, "tags": {"bench": "yes", "bus": "yes", "highway": "bus_stop", "name": "Figueroa & Imperial", "network": "Metro Local", "network:wikidata": "Q77610", "operator": "Los Angeles County Metropolitan Transportation Authority", "operator:wikidata": "Q3259702", "public_transport": "platform", "route_ref": "45;120;127", "shelter": "yes"}}, {"type": "node", "id": 1376451994, "lat": 34.0483615, "lon": -118.259253, "tags": {"bus": "yes", "highway": "bus_stop", "name": "Flower Street & 7th Street", "network": "Metro Express;Torrance Transit;OC Bus;Commuter Express", "network:wikidata": "Q77610;Q7826932;Q7099595", "network:wikipedia": "en:Los Angeles Metro Bus;en:Torrance Transit;en:Orange County Transportation Authority", "operator": "Los Angeles County Metropolitan Transportation Authority;Orange County Transportation Authority;Los Angeles Department of Transportation", "operator:short": "OCTA", "operator:wikidata": "Q3259702", "operator:wikipedia": "en:Los Angeles County Metropolitan Transportation Authority", "public_transport": "platform"}}, {"type": "node", "id": 1376454268, "lat": 34.0490616, "lon": -118.260022, "tags": {"bench": "yes", "bin": "yes", "bus": "yes", "highway": "bus_stop", "lit": "yes", "name": "Figueroa Street & 7th Street", "network": "Foothill Transit;Metro Express;OC Bus;Torrance Transit;Big Blue Bus;Antelope Valley Transit Authority;Santa Clarita Transit;Commuter Express;Big Blue Bus", "network:short": "AVTA", "network:wikidata": "Q5466493;Q77610;Q7099595;Q7826932;Q4905149;Q4771209;Q5123908", "network:wikipedia": "en:Foothill Transit;en:Los Angeles Metro Bus;en:Orange County Transportation Authority;en:Torrance Transit;en:Big Blue Bus;en:Antelope Valley Transit Authority;en:City of Santa Clarita Transit", "operator": "Los Angeles County Metropolitan Transportation Authority;Orange County Transportation Authority;Los Angeles Department of Transportation", "operator:short": "OCTA", "operator:wikidata": "Q3259702", "operator:wikipedia": "en:Los Angeles County Metropolitan Transportation Authority", "public_transport": "platform", "ref": "6136", "shelter": "yes", "tactile_paving": "yes"}}, {"type": "node", "id": 1384064653, "lat": 33.8736074, "lon": -117.9199894, "tags": {"bus": "yes", "highway": "bus_stop", "name": "Lemon-Chapman", "network": "OC Bus", "network:wikidata": "Q6593059", "operator": "Orange County Transportation Authority", "operator:short": "OCTA", "operator:wikidata": "Q7099595", "public_transport": "platform", "ref": "1846", "source": "OCTA GIS"}}, {"type": "node", "id": 1384064672, "lat": 33.8738892, "lon": -117.9193315, "tags": {"bus": "yes", "highway": "bus_stop", "name": "Chapman-Lemon", "network": "OC Bus", "network:wikidata": "Q6593059", "operator": "Orange County Transportation Authority", "operator:short": "OCTA", "operator:wikidata": "Q7099595", "public_transport": "platform", "ref": "1662", "source": "OCTA GIS"}}, {"type": "node", "id": 1384064683, "lat": 33.8741217, "lon": -117.9145417, "tags": {"bus": "yes", "highway": "bus_stop", "name": "Chapman-Berkeley", "network": "OC Bus", "network:wikidata": "Q6593059", "operator": "Orange County Transportation Authority", "operator:short": "OCTA", "operator:wikidata": "Q7099595", "public_transport": "platform", "ref": "1686", "source": "OCTA GIS"}}, {"type": "node", "id": 1396717192, "lat": 33.9322768, "lon": -117.894677, "tags": {"bench": "yes", "bin": "yes", "bus": "yes", "highway": "bus_stop", "name": "Central-Brea", "network": "OC Bus", "network:wikidata": "Q6593059", "operator": "Orange County Transportation Authority", "operator:short": "OCTA", "operator:wikidata": "Q7099595", "public_transport": "platform", "ref": "0977", "shelter": "no", "source": "OCTA GIS"}}, {"type": "node", "id": 1424377602, "lat": 33.9600286, "lon": -118.2653234, "tags": {"bench": "yes", "bus": "yes", "highway": "bus_stop", "name": "Manchester & Avalon", "network": "Metro Local", "network:wikidata": "Q77610", "operator": "Los Angeles County Metropolitan Transportation Authority", "operator:wikidata": "Q3259702", "public_transport": "platform", "route": "115;305", "shelter": "no"}}, {"type": "node", "id": 1424377852, "lat": 33.9599831, "lon": -118.274097, "tags": {"bench": "yes", "bus": "yes", "highway": "bus_stop", "name": "Manchester & Main", "network": "Metro Local", "network:wikidata": "Q77610", "operator": "Los Angeles County Metropolitan Transportation Authority", "operator:wikidata": "Q3259702", "public_transport": "platform", "route_ref": "111", "shelter": "yes"}}, {"type": "node", "id": 1424377917, "lat": 33.9599893, "lon": -118.2777126, "tags": {"bench": "yes", "bus": "yes", "highway": "bus_stop", "name": "Manchester & Broadway", "network": "Metro Local", "network:wikidata": "Q77610", "operator": "Los Angeles County Metropolitan Transportation Authority", "operator:wikidata": "Q3259702", "public_transport": "platform", "shelter": "no"}}, {"type": "node", "id": 1424378022, "lat": 33.959947, "lon": -118.280827, "tags": {"bench": "yes", "bus": "yes", "highway": "bus_stop", "name": "Manchester & Harbor Transitway", "network": "Metro Local", "network:wikidata": "Q77610", "operator": "Los Angeles County Metropolitan Transportation Authority", "operator:wikidata": "Q3259702", "public_transport": "platform", "shelter": "yes"}}, {"type": "node", "id": 1424378031, "lat": 33.9602032, "lon": -118.2801145, "tags": {"bench": "yes", "bus": "yes", "highway": "bus_stop", "name": "Manchester & Harbor Transitway", "network": "Metro Local", "network:wikidata": "Q77610", "operator": "Los Angeles County Metropolitan Transportation Authority", "operator:wikidata": "Q3259702", "public_transport": "platform", "shelter": "no"}}, {"type": "node", "id": 1446077221, "lat": 33.8137247, "lon": -117.919284, "tags": {"name": "Fantasyland Station", "public_transport": "station", "railway": "station", "website": "https://disneyland.disney.go.com/disneyland/casey-jr-circus-train/", "wheelchair": "limited"}}, {"type": "node", "id": 1451383696, "lat": 33.8148454, "lon": -117.918536, "tags": {"name": "Mickey's Toontown Depot", "old_name": "Videopolis Station", "operator": "Disney Parks", "public_transport": "station", "railway": "station", "ref": "DRR: Mickey's Toontown Depot", "website": "https://disneyland.disney.go.com/attractions/disneyland/disneyland-railroad/", "wheelchair": "yes"}}, {"type": "node", "id": 1474022616, "lat": 33.8112026, "lon": -117.921932, "tags": {"air_conditioning": "no", "name": "New Orleans Square Station", "old_name": "Frontierland Station", "public_transport": "station", "railway": "station", "ref": "DRR: New Orleans Square Station", "website": "https://disneyland.disney.go.com/attractions/disneyland/disneyland-railroad/", "wheelchair": "yes"}}, {"type": "node", "id": 1474022646, "lat": 33.8124524, "lon": -117.915798, "tags": {"designation": "1", "name": "Tomorrowland Station", "operator": "Disney Parks", "public_transport": "station", "railway": "station", "ref": "DRR: Tomorrowland Station", "website": "https://disneyland.disney.go.com/attractions/disneyland/disneyland-railroad/", "wheelchair": "limited"}}, {"type": "node", "id": 1474022664, "lat": 33.8099111, "lon": -117.918956, "tags": {"designation": "2", "name": "Main Street Station", "public_transport": "station", "railway": "station", "ref": "DRR: Main Street Station", "website": "https://disneyland.disney.go.com/attractions/disneyland/disneyland-railroad/", "wheelchair": "no"}}, {"type": "node", "id": 1488891124, "lat": 33.8178941, "lon": -117.9212777, "tags": {"bus": "yes", "highway": "bus_stop", "name": "Ball Road at Cast Place", "network": "Anaheim Resort Transit", "network:short": "ART", "network:wikidata": "Q4750893", "network:wikipedia": "en:Anaheim Resort Transportation", "operator": "Transdev", "public_transport": "platform", "ref": "4004", "shelter": "yes"}}, {"type": "node", "id": 1524398657, "lat": 33.8452464, "lon": -117.9986513, "tags": {"name": "Camp Snoopy Depot", "public_transport": "station", "railway": "station"}}, {"type": "node", "id": 1544302651, "lat": 33.7571057, "lon": -118.1235238, "tags": {"bus": "yes", "direction": "NW", "highway": "bus_stop", "local_ref": "Passport A, D", "name": "Second and Ravenna", "public_transport": "platform"}}, {"type": "node", "id": 1586488993, "lat": 33.8640355, "lon": -118.125256, "tags": {"bench": "no", "bus": "yes", "highway": "bus_stop", "public_transport": "platform", "shelter": "no", "tactile_paving": "no"}},