{"version": 0.6, "generator": "Overpass API 0.7.62.11 87bfad18", "osm3s": {"timestamp_osm_base": "2026-05-09T15:00:29Z", "copyright": "The data included in this document is from www.openstreetmap.org. The data is made available under ODbL."}, "elements": [{"type": "node", "id": 884226019, "lat": 34.0171575, "lon": -118.819055, "tags": {"level": "0", "name": "Malibu Ranch Market", "shop": "convenience", "source": "usgs_imagery_2006;survey;image", "source_ref": "AM909_DSCS7093"}}, {"type": "node", "id": 1427516089, "lat": 34.0207619, "lon": -118.8103056}, {"type": "node", "id": 1427516090, "lat": 34.0210255, "lon": -118.8106188}, {"type": "node", "id": 1427516091, "lat": 34.0210534, "lon": -118.8106406}, {"type": "node", "id": 1427516092, "lat": 34.020655, "lon": -118.8103848}, {"type": "node", "id": 1427516093, "lat": 34.0207224, "lon": -118.8102716}, {"type": "node", "id": 1427516094, "lat": 34.0209931, "lon": -118.8106743}, {"type": "node", "id": 4558323503, "lat": 34.0316053, "lon": -118.8436921}, {"type": "node", "id": 4558323827, "lat": 34.0317857, "lon": -118.8437648}, {"type": "node", "id": 4558324143, "lat": 34.0318243, "lon": -118.8438172}, {"type": "node", "id": 4558325040, "lat": 34.0317517, "lon": -118.8437173}, {"type": "node", "id": 4558326287, "lat": 34.0316703, "lon": -118.8437835}, {"type": "node", "id": 4558326464, "lat": 34.031626, "lon": -118.8437202}, {"type": "node", "id": 4558326786, "lat": 34.0317965, "lon": -118.8437533}, {"type": "node", "id": 4558327502, "lat": 34.0315063, "lon": -118.8438474}, {"type": "node", "id": 4558327787, "lat": 34.031677, "lon": -118.8436159}, {"type": "node", "id": 4558328722, "lat": 34.0317517, "lon": -118.8438942}, {"type": "node", "id": 4558329322, "lat": 34.031762, "lon": -118.8437064}, {"type": "node", "id": 4558329978, "lat": 34.0315518, "lon": -118.8439093}, {"type": "node", "id": 4570603171, "lat": 34.0209532, "lon": -118.8099863}, {"type": "node", "id": 4570624891, "lat": 34.0209995, "lon": -118.8106634}, {"type": "node", "id": 4570626423, "lat": 34.0210125, "lon": -118.8106745}, {"type": "node", "id": 4570630876, "lat": 34.021037, "lon": -118.8106708}, {"type": "node", "id": 4570639264, "lat": 34.0212458, "lon": -118.8102484}, {"type": "node", "id": 8493180398, "lat": 34.031185, "lon": -118.8425605, "tags": {"name": "Vintage Grocers", "shop": "supermarket"}}, {"type": "way", "id": 129382109, "nodes": [4570603171, 1427516089, 1427516093, 1427516092, 1427516094, 4570624891, 4570626423, 4570630876, 1427516091, 1427516090, 4570639264, 4570603171], "tags": {"addr:housenumber": "29211", "addr:postcode": "90265", "addr:street": "Heathercliff Road", "brand": "Pavilions", "brand:wikidata": "Q7155886", "building": "retail", "ele": "67.2", "height": "6.9", "lacounty:ain": "4468010017", "lacounty:bld_id": "316088831000", "name": "Pavilions", "ref": "2813", "shop": "supermarket", "start_date": "1970", "website": "https://local.pavilions.com/ca/malibu/29211-heathercliff-rd.html"}}, {"type": "way", "id": 460155448, "nodes": [4558323827, 4558326786, 4558329322, 4558325040, 4558327787, 4558323503, 4558326464, 4558327502, 4558329978, 4558326287, 4558328722, 4558324143, 4558323827], "tags": {"brand": "Chevron", "brand:wikidata": "Q319642", "building": "yes", "building:units": "1", "ele": "15.6", "height": "6.3", "lacounty:ain": "4470012001", "lacounty:bld_id": "306025834997", "layer": "1", "name": "Chevron", "shop": "convenience", "start_date": "1961"}}]}