{"version": 0.6, "generator": "Overpass API 0.7.62.11 87bfad18", "osm3s": {"timestamp_osm_base": "2026-05-09T14:56:17Z", "copyright": "The data included in this document is from www.openstreetmap.org. The data is made available under ODbL."}, "elements": [{"type": "node", "id": 123386730, "lat": 34.0263634, "lon": -118.3721521, "tags": {"addr:city": "Los Angeles", "addr:housenumber": "5664", "addr:postcode": "90016", "addr:state": "CA", "addr:street": "W Jefferson Boulevard", "light_rail": "yes", "name": "La Cienega/Jefferson", "network": "LACMTA", "operator": "Los Angeles County Metropolitan Transportation Authority", "public_transport": "station", "railway": "station", "station": "light_rail", "wikidata": "Q2092456"}}, {"type": "node", "id": 344373032, "lat": 34.0368181, "lon": -118.4245788, "tags": {"light_rail": "yes", "name": "Westwood/Rancho Park", "network": "LACMTA", "operator": "Los Angeles County Metropolitan Transportation Authority", "public_transport": "station", "railway": "station", "station": "light_rail", "wheelchair": "yes", "wikidata": "Q5421459"}}, {"type": "node", "id": 581233888, "lat": 33.9596529, "lon": -118.435985, "tags": {"bus": "yes", "highway": "bus_stop", "name": "Manchester / Gulana", "network": "Metro Local", "network:wikidata": "Q77610", "operator": "Los Angeles County Metropolitan Transportation Authority", "operator:wikidata": "Q3259702", "public_transport": "platform", "ref": "16089", "route_ref": "115", "shelter": "no"}}, {"type": "node", "id": 864284445, "lat": 34.0293247, "lon": -118.4042754, "tags": {"alt_name": "National/Palms", "light_rail": "yes", "name": "Palms", "network": "LACMTA", "operator": "Los Angeles County Metropolitan Transportation Authority", "public_transport": "station", "railway": "station", "station": "light_rail", "wheelchair": "yes", "wikidata": "Q6970073"}}, {"type": "node", "id": 865900122, "lat": 34.035394, "lon": -118.534935, "tags": {"bench": "no", "bin": "no", "bus": "yes", "highway": "bus_stop", "name": "Pacific Coast Highway & Temescal Canyon", "network": "Metro Express;Beach Bus", "operator": "Metro;LA County", "public_transport": "platform", "route_ref": "534", "shelter": "no", "source": "usgs_imagery_2006;survey;image", "source_ref": "AM909_DSCS6389", "tactile_paving": "no"}}, {"type": "node", "id": 866290685, "lat": 34.0419983, "lon": -118.568011, "tags": {"bench": "yes", "bin": "no", "bus": "yes", "highway": "bus_stop", "name": "Pacific Coast Highway / Getty Villa", "network": "Metro Express", "network:wikidata": "Q77610", "network:wikipedia": "en:Los Angeles Metro Bus", "old_name": "Pacific Coast Highway & Coastline", "operator": "Los Angeles County Metropolitan Transportation Authority", "operator:wikidata": "Q3259702", "operator:wikipedia": "en:Los Angeles County Metropolitan Transportation Authority", "public_transport": "platform", "route_ref": "534", "shelter": "no", "source_ref": "AM909_DSCS6436", "tactile_paving": "no"}}, {"type": "node", "id": 867377795, "lat": 34.0401247, "lon": -118.580162, "tags": {"bench": "no", "bus": "yes", "highway": "bus_stop", "name": "Pacific Coast Highway & Topanga Canyon", "network": "Metro Express", "network:wikidata": "Q77610", "network:wikipedia": "en:Los Angeles Metro Bus", "operator": "Los Angeles County Metropolitan Transportation Authority", "operator:wikidata": "Q3259702", "operator:wikipedia": "en:Los Angeles County Metropolitan Transportation Authority", "public_transport": "platform", "shelter": "no"}}, {"type": "node", "id": 867822459, "lat": 34.0374646, "lon": -118.608298, "tags": {"bench": "yes", "bus": "yes", "highway": "bus_stop", "name": "Pacific Coast Highway & Big Rock", "network": "Metro Express", "network:wikidata": "Q77610", "network:wikipedia": "en:Los Angeles Metro Bus", "operator": "Los Angeles County Metropolitan Transportation Authority", "operator:wikidata": "Q3259702", "operator:wikipedia": "en:Los Angeles County Metropolitan Transportation Authority", "public_transport": "platform", "route_ref": "534", "shelter": "no"}}, {"type": "node", "id": 867822730, "lat": 34.0395357, "lon": -118.589106, "tags": {"bench": "yes", "bus": "yes", "highway": "bus_stop", "name": "Pacific Coast Highway & Tuna Canyon", "network": "Metro Express", "network:wikidata": "Q77610", "network:wikipedia": "en:Los Angeles Metro Bus", "operator": "Los Angeles County Metropolitan Transportation Authority", "operator:wikidata": "Q3259702", "operator:wikipedia": "en:Los Angeles County Metropolitan Transportation Authority", "public_transport": "platform", "route_ref": "534", "shelter": "no"}}, {"type": "node", "id": 880565939, "lat": 34.0360776, "lon": -118.6904252, "tags": {"bus": "yes", "highway": "bus_stop", "name": "Civic Center & Stuart Ranch", "network": "Metro Express", "network:wikidata": "Q77610", "network:wikipedia": "en:Los Angeles Metro Bus", "operator": "Los Angeles County Metropolitan Transportation Authority", "operator:wikidata": "Q3259702", "operator:wikipedia": "en:Los Angeles County Metropolitan Transportation Authority", "public_transport": "platform", "route_ref": "534", "shelter": "no"}}, {"type": "node", "id": 880566254, "lat": 34.0351454, "lon": -118.7035589, "tags": {"bench": "no", "bus": "yes", "highway": "bus_stop", "name": "Malibu Canyon & Pacific Coast Highway", "network": "Metro Express", "network:wikidata": "Q77610", "network:wikipedia": "en:Los Angeles Metro Bus", "operator": "Los Angeles County Metropolitan Transportation Authority", "operator:wikidata": "Q3259702", "operator:wikipedia": "en:Los Angeles County Metropolitan Transportation Authority", "public_transport": "platform", "route_ref": "534", "shelter": "no"}}, {"type": "node", "id": 880566509, "lat": 34.039492, "lon": -118.6706299, "tags": {"bench": "yes", "bus": "yes", "highway": "bus_stop", "network": "Metro Express", "network:wikidata": "Q77610", "network:wikipedia": "en:Los Angeles Metro Bus", "operator": "Los Angeles County Metropolitan Transportation Authority", "operator:wikidata": "Q3259702", "operator:wikipedia": "en:Los Angeles County Metropolitan Transportation Authority", "public_transport": "platform", "route_ref": "534", "shelter": "no"}}, {"type": "node", "id": 880566716, "lat": 34.0354077, "lon": -118.7033078, "tags": {"bus": "yes", "highway": "bus_stop", "name": "Malibu Canyon & Pacific Coast Highway", "network": "Metro Express", "network:wikidata": "Q77610", "network:wikipedia": "en:Los Angeles Metro Bus", "operator": "Los Angeles County Metropolitan Transportation Authority", "operator:wikidata": "Q3259702", "operator:wikipedia": "en:Los Angeles County Metropolitan Transportation Authority", "public_transport": "platform", "route_ref": "534", "shelter": "no"}}, {"type": "node", "id": 880566721, "lat": 34.0397722, "lon": -118.6655328, "tags": {"bench": "no", "bus": "yes", "highway": "bus_stop", "network": "Metro Express", "network:wikidata": "Q77610", "network:wikipedia": "en:Los Angeles Metro Bus", "operator": "Los Angeles County Metropolitan Transportation Authority", "operator:wikidata": "Q3259702", "operator:wikipedia": "en:Los Angeles County Metropolitan Transportation Authority", "public_transport": "platform", "route_ref": "534", "shelter": "no", "source_ref": "AM909_DSCS6959", "towards": "Malibu Trancas"}}, {"type": "node", "id": 880566829, "lat": 34.0372639, "lon": -118.6774224, "tags": {"bench": "no", "bin": "no", "bus": "yes", "highway": "bus_stop", "lit": "yes", "name": "Pacific Coast Highway & Malibu Pier", "network": "Metro Express", "network:wikidata": "Q77610", "network:wikipedia": "en:Los Angeles Metro Bus", "operator": "Los Angeles County Metropolitan Transportation Authority", "operator:wikidata": "Q3259702", "operator:wikipedia": "en:Los Angeles County Metropolitan Transportation Authority", "public_transport": "platform", "ref": "134", "route_ref": "534", "shelter": "no", "tactile_paving": "no"}}, {"type": "node", "id": 880595267, "lat": 34.03438, "lon": -118.70967, "tags": {"bench": "yes", "bus": "yes", "highway": "bus_stop", "name": "Pacific Coast Highway & John Tyler", "network": "Metro Express", "network:wikidata": "Q77610", "network:wikipedia": "en:Los Angeles Metro Bus", "operator": "Los Angeles County Metropolitan Transportation Authority", "operator:wikidata": "Q3259702", "operator:wikipedia": "en:Los Angeles County Metropolitan Transportation Authority", "public_transport": "platform", "route_ref": "534", "shelter": "no"}}, {"type": "node", "id": 940376381, "lat": 34.0463814, "lon": -118.345394, "tags": {"bench": "yes", "bin": "yes", "bus": "yes", "highway": "bus_stop", "name": "La Brea & Venice", "network": "Metro Local", "network:wikidata": "Q77610", "operator": "Los Angeles County Metropolitan Transportation Authority", "operator:wikidata": "Q3259702", "public_transport": "platform", "route_ref": "212;312", "shelter": "yes", "source": "survey", "tactile_paving": "no"}}, {"type": "node", "id": 940376389, "lat": 34.0407229, "lon": -118.347523, "tags": {"bench": "yes", "bin": "yes", "bus": "yes", "highway": "bus_stop", "name": "La Brea & Washington", "network": "Metro Local", "network:wikidata": "Q77610", "operator": "Los Angeles County Metropolitan Transportation Authority", "operator:wikidata": "Q3259702", "public_transport": "platform", "route_ref": "212;312", "shelter": "yes", "source": "survey", "tactile_paving": "no"}}, {"type": "node", "id": 940376405, "lat": 34.0386337, "lon": -118.348525, "tags": {"bus": "yes", "highway": "bus_stop", "name": "La Brea & 21st", "network": "Metro Local", "network:wikidata": "Q77610", "operator": "Los Angeles County Metropolitan Transportation Authority", "operator:wikidata": "Q3259702", "public_transport": "platform", "route_ref": "212", "shelter": "no", "source": "survey"}}, {"type": "node", "id": 940376418, "lat": 34.0360753, "lon": -118.349542, "tags": {"bench": "no", "bin": "yes", "bus": "yes", "highway": "bus_stop", "name": "La Brea & 23rd", "network": "Metro Local", "network:wikidata": "Q77610", "operator": "Los Angeles County Metropolitan Transportation Authority", "operator:wikidata": "Q3259702", "public_transport": "platform", "route_ref": "212", "shelter": "no", "source": "survey", "tactile_paving": "no"}}, {"type": "node", "id": 940376466, "lat": 34.0481288, "lon": -118.3447403, "tags": {"bench": "yes", "bin": "yes", "bus": "yes", "highway": "bus_stop", "name": "La Brea & Pico", "network": "Metro Local", "network:wikidata": "Q77610", "network:wikipedia": "en:Metro Local", "operator": "Los Angeles County Metropolitan Transportation Authority", "operator:wikidata": "Q3259702", "operator:wikipedia": "en:Los Angeles County Metropolitan Transportation Authority", "public_transport": "platform", "route_ref": "212;312", "shelter": "yes", "source": "survey", "tactile_paving": "no"}}, {"type": "node", "id": 940376497, "lat": 34.0498417, "lon": -118.344336, "tags": {"bench": "yes", "bin": "yes", "bus": "yes", "highway": "bus_stop", "name": "La Brea & San Vicente", "network": "Metro Local", "network:wikidata": "Q77610", "network:wikipedia": "en:Los Angeles Metro Bus", "operator": "Los Angeles County Metropolitan Transportation Authority", "operator:wikidata": "Q3259702", "operator:wikipedia": "en:Los Angeles County Metropolitan Transportation Authority", "public_transport": "platform", "route_ref": "212", "shelter": "yes", "source": "survey"}}, {"type": "node", "id": 965395490, "lat": 33.8538754, "lon": -118.3817912, "tags": {"bench": "yes", "bin": "yes", "bus": "yes", "highway": "bus_stop", "lit": "yes", "name": "Prospect Avenue / Beryl Street", "public_transport": "platform", "ref": "422", "shelter": "no", "tactile_paving": "no"}}, {"type": "node", "id": 965395493, "lat": 33.8493922, "lon": -118.388504, "tags": {"bus": "yes", "highway": "bus_stop", "public_transport": "platform"}}, {"type": "node", "id": 965397096, "lat": 33.8542393, "lon": -118.389963, "tags": {"bench": "yes", "bin": "yes", "bus": "yes", "highway": "bus_stop", "public_transport": "platform", "shelter": "no", "tactile_paving": "no"}}, {"type": "node", "id": 1031001120, "lat": 33.9315482, "lon": -118.404372, "tags": {"bus": "yes", "highway": "bus_stop", "operator": "LACMTA", "public_transport": "platform", "route": "625", "source": "survey"}}, {"type": "node", "id": 1031001134, "lat": 33.931526, "lon": -118.4079831, "tags": {"bus": "yes", "highway": "bus_stop", "operator": "LACMTA", "public_transport": "platform", "route": "625", "source": "survey"}}, {"type": "node", "id": 1031001162, "lat": 33.9315304, "lon": -118.4162121, "tags": {"bus": "yes", "highway": "bus_stop", "operator": "LACMTA", "public_transport": "platform", "route": "625", "source": "survey"}}, {"type": "node", "id": 1031001175, "lat": 33.9314948, "lon": -118.424843, "tags": {"bus": "yes", "highway": "bus_stop", "operator": "LACMTA", "public_transport": "platform", "route": "625", "source": "survey"}}, {"type": "node", "id": 1031049067, "lat": 33.9309829, "lon": -118.435151, "tags": {"bus": "yes", "highway": "bus_stop", "operator": "LACMTA", "public_transport": "platform", "shelter": "yes", "source": "survey"}}, {"type": "node", "id": 1033410779, "lat": 33.9587737, "lon": -118.436979, "tags": {"bus": "yes", "highway": "bus_stop", "name": "Manchester / Falmouth", "network": "Metro Local", "network:wikidata": "Q77610", "operator": "Los Angeles County Metropolitan Transportation Authority", "operator:wikidata": "Q3259702", "public_transport": "platform", "ref": "7799", "route_ref": "115", "shelter": "yes", "source": "survey"}}, {"type": "node", "id": 1033410790, "lat": 33.9595079, "lon": -118.435332, "tags": {"bus": "yes", "highway": "bus_stop", "name": "Manchester / Gulana", "network": "Metro Local", "network:wikidata": "Q77610", "operator": "Los Angeles County Metropolitan Transportation Authority", "operator:wikidata": "Q3259702", "public_transport": "platform", "ref": "7800", "route_ref": "115", "shelter": "no", "source": "survey"}}, {"type": "node", "id": 1033410824, "lat": 33.957797, "lon": -118.439066, "tags": {"bus": "yes", "highway": "bus_stop", "name": "Manchester / Tuscany", "network": "Metro Local", "network:wikidata": "Q77610", "operator": "Los Angeles County Metropolitan Transportation Authority", "operator:wikidata": "Q3259702", "public_transport": "platform", "ref": "3130", "route_ref": "115", "shelter": "yes", "source": "survey"}}, {"type": "node", "id": 1384786307, "lat": 34.0114351, "lon": -118.335265, "tags": {"bench": "yes", "bus": "yes", "highway": "bus_stop", "name": "Crenshaw & Martin Luther King Junior", "network": "Metro Local", "network:wikidata": "Q77610", "operator": "Los Angeles County Metropolitan Transportation Authority", "operator:wikidata": "Q3259702", "public_transport": "platform", "route_ref": "210", "shelter": "no"}}, {"type": "node", "id": 1384786310, "lat": 34.0112118, "lon": -118.334992, "tags": {"bench": "yes", "bus": "yes", "highway": "bus_stop", "name": "Crenshaw & Martin Luther King Junior", "network": "Metro Local", "network:wikidata": "Q77610", "operator": "Los Angeles County Metropolitan Transportation Authority", "operator:wikidata": "Q3259702", "public_transport": "platform", "route_ref": "210", "shelter": "no"}}, {"type": "node", "id": 1419803117, "lat": 34.0289357, "lon": -118.40371, "tags": {"bench": "no", "bus": "yes", "departures_board": "no", "highway": "bus_stop", "name": "Palms & Exposition (Palms Station)", "network": "Big Blue Bus", "network:wikidata": "Q4905149", "network:wikipedia": "en:Big Blue Bus", "operator": "Big Blue Bus", "public_transport": "platform", "shelter": "no"}}, {"type": "node", "id": 1419803119, "lat": 34.0265203, "lon": -118.40876, "tags": {"bench": "no", "bin": "yes", "bus": "yes", "highway": "bus_stop", "name": "Motor & Palms", "network": "Culver CityBus", "network:wikidata": "Q5193719", "network:wikipedia": "en:Culver CityBus", "operator": "Culver City Bus", "public_transport": "platform", "shelter": "no"}}, {"type": "node", "id": 1419803121, "lat": 34.0290711, "lon": -118.410842, "tags": {"bench": "yes", "bin": "yes", "bus": "yes", "description": "Culver City 3", "highway": "bus_stop", "name": "National & Motor", "network": "Culver CityBus", "network:wikidata": "Q5193719", "network:wikipedia": "en:Culver CityBus", "operator": "Culver CityBus", "public_transport": "platform", "shelter": "no"}}, {"type": "node", "id": 1419803123, "lat": 34.0262417, "lon": -118.4091005, "tags": {"bench": "no", "bus": "yes", "highway": "bus_stop", "name": "Palms & Motor", "network": "Big Blue Bus;Culver CityBus", "network:wikidata": "Q4905149;Q5193719", "network:wikipedia": "en:Big Blue Bus;en:Culver CityBus", "operator": "Big Blue Bus;Culver CityBus", "public_transport": "platform", "shelter": "no"}}, {"type": "node", "id": 1419803124, "lat": 34.0251432, "lon": -118.411793, "tags": {"bench": "yes", "bus": "yes", "departures_board": "realtime", "highway": "bus_stop", "name": "Overland & Palms", "network": "Big Blue Bus;Culver CityBus", "network:wikidata": "Q4905149;Q5193719", "operator": "City of Santa Monica", "operator:wikidata": "Q47164", "public_transport": "platform", "ref": "2570", "shelter": "no"}}, {"type": "node", "id": 1419803127, "lat": 34.0308972, "lon": -118.421053, "tags": {"bench": "yes", "bus": "yes", "highway": "bus_stop", "name": "Westwood & National", "network": "Big Blue Bus;Culver CityBus", "network:wikidata": "Q4905149;Q5193719", "network:wikipedia": "en:Big Blue Bus;en:Culver CityBus", "operator": "Big Blue Bus;Culver CityBus", "operator:wikidata": "Q4905149", "public_transport": "platform", "ref": "2408", "shelter": "no"}}, {"type": "node", "id": 1419803129, "lat": 34.0292854, "lon": -118.403641, "tags": {"bench": "no", "bin": "yes", "bus": "yes", "departures_board": "realtime", "highway": "bus_stop", "name": "National & Exposition (Palms Station)", "network": "Big Blue Bus", "network:wikidata": "Q4905149", "network:wikipedia": "en:Big Blue Bus", "operator": "Big Blue Bus", "public_transport": "platform", "ref": "2823", "shelter": "no"}}, {"type": "node", "id": 1419803130, "lat": 34.0307816, "lon": -118.415718, "tags": {"bench": "yes", "bus": "yes", "highway": "bus_stop", "name": "National & Overland", "network": "Culver CityBus;Commuter Express", "network:wikidata": "Q5193719;Q112028995", "network:wikipedia": "en:Culver CityBus", "operator": "Culver CityBus;Los Angeles Department of Transportation", "operator:wikidata": "Q3259703", "public_transport": "platform", "shelter": "yes"}}, {"type": "node", "id": 1419803131, "lat": 34.0275946, "lon": -118.406157, "tags": {"bench": "no", "bus": "yes", "highway": "bus_stop", "name": "Palms & Jasmine", "network": "Big Blue Bus", "network:wikidata": "Q4905149", "network:wikipedia": "en:Big Blue Bus", "operator": "City of Santa Monica", "operator:wikidata": "Q47164", "public_transport": "platform", "shelter": "no"}}, {"type": "node", "id": 1419803135, "lat": 34.0275237, "lon": -118.406672, "tags": {"bench": "no", "bus": "yes", "highway": "bus_stop", "name": "Palms & Jasmine", "network": "Big Blue Bus", "network:wikidata": "Q4905149", "network:wikipedia": "en:Big Blue Bus", "operator": "City of Santa Monica", "operator:wikidata": "Q47164", "public_transport": "platform", "shelter": "no"}}, {"type": "node", "id": 1419803136, "lat": 34.0307905, "lon": -118.421243, "tags": {"bench": "yes", "bus": "yes", "departures_board": "realtime", "highway": "bus_stop", "name": "Westwood & National", "network": "Big Blue Bus;Culver CityBus", "network:wikidata": "Q4905149;Q5193719", "network:wikipedia": "en:Big Blue Bus;en:Culver CityBus", "operator": "Big Blue Bus;Culver CityBus", "operator:wikidata": "Q4905149", "public_transport": "platform", "ref": "2387", "shelter": "no"}}, {"type": "node", "id": 1419803137, "lat": 34.0264742, "lon": -118.408252, "tags": {"bench": "no", "bin": "yes", "bus": "yes", "highway": "bus_stop", "name": "Palms & Motor", "network": "Big Blue Bus", "network:wikidata": "Q4905149", "network:wikipedia": "en:Big Blue Bus", "operator": "Big Blue Bus", "public_transport": "platform", "ref": "2501", "shelter": "no"}}, {"type": "node", "id": 1419803141, "lat": 34.0308483, "lon": -118.416769, "tags": {"bench": "yes", "bus": "yes", "highway": "bus_stop", "name": "National Place & Overland", "network": "Big Blue Bus;Culver CityBus", "network:wikidata": "Q4905149;Q5193719", "network:wikipedia": "en:Big Blue Bus;en:Culver CityBus", "operator": "Big Blue Bus;Culver CityBus", "operator:wikidata": "Q4905149", "public_transport": "platform", "ref": "2568", "shelter": "no"}}, {"type": "node", "id": 1595719458, "lat": 33.9878551, "lon": -118.470803, "tags": {"bench": "yes", "bus": "yes", "highway": "bus_stop", "name": "Main & Grand", "network": "Metro Local", "network:wikidata": "Q77610", "network:wikipedia": "en:Metro Local", "operator": "Los Angeles County Metropolitan Transportation Authority", "operator:wikidata": "Q3259702", "operator:wikipedia": "en:Los Angeles County Metropolitan Transportation Authority", "public_transport": "platform", "shelter": "no"}}, {"type": "node", "id": 1618274467, "lat": 34.0248103, "lon": -118.3551479, "tags": {"light_rail": "yes", "name": "Expo/La Brea", "network": "LACMTA", "operator": "Los Angeles County Metropolitan Transportation Authority", "public_transport": "station", "railway": "station", "station": "light_rail", "wheelchair": "yes", "wikidata": "Q2092637"}}, {"type": "node", "id": 1618274502, "lat": 34.0278787, "lon": -118.3888493, "tags": {"light_rail": "yes", "name": "Culver City", "network": "LACMTA", "operator": "Los Angeles County Metropolitan Transportation Authority", "public_transport": "station", "railway": "station", "station": "light_rail", "wheelchair": "yes", "wikidata": "Q2092437"}}, {"type": "node", "id": 1709283231, "lat": 34.0280089, "lon": -118.4690898, "tags": {"light_rail": "yes", "name": "26th Street/Bergamot", "network": "LACMTA", "operator": "Los Angeles County Metropolitan Transportation Authority", "public_transport": "station", "railway": "station", "station": "light_rail", "wheelchair": "yes", "wikidata": "Q7089022"}}, {"type": "node", "id": 1768112047, "lat": 33.9296211, "lon": -118.3772137, "tags": {"addr:city": "Los Angeles", "addr:housenumber": "11500", "addr:postcode": "90045", "addr:state": "CA", "addr:street": "Aviation Boulevard", "light_rail": "yes", "name": "Aviation/Imperial", "network": "LACMTA", "operator": "Los Angeles County Metropolitan Transportation Authority", "public_transport": "station", "railway": "station", "station": "light_rail", "wheelchair": "yes", "wikidata": "Q195806", "wikipedia": "en:Aviation/Imperial station"}}, {"type": "node", "id": 1780473930, "lat": 34.0192966, "lon": -118.491477, "tags": {"bench": "yes", "bin": "yes", "bus": "yes", "highway": "bus_stop", "lit": "yes", "name": "Santa Monica & Lincoln", "network": "Big Blue Bus;Metro Local", "network:wikidata": "Q4905149;Q77610", "network:wikipedia": "en:Big Blue Bus;en:Metro Local", "operator": "Big Blue Bus;Los Angeles County Metropolitan Transportation Authority", "operator:wikidata": "Q3259702", "operator:wikipedia": "en:Los Angeles County Metropolitan Transportation Authority", "public_transport": "platform", "ref": "1379", "shelter": "yes", "tactile_paving": "no"}}, {"type": "node", "id": 1792548371, "lat": 34.0207753, "lon": -118.404347, "tags": {"bench": "yes", "bin": "yes", "bus": "yes", "check_date:shelter": "2026-04-18", "highway": "bus_stop", "name": "Motor & Venice", "network": "Culver CityBus", "network:wikidata": "Q5193719", "network:wikipedia": "en:Culver CityBus", "operator": "Culver CityBus", "public_transport": "platform", "shelter": "yes", "tactile_paving": "no"}}, {"type": "node", "id": 1844788377, "lat": 33.7806873, "lon": -118.309593, "tags": {"bus": "yes", "highway": "bus_stop", "name": "Western / Leesdale", "public_transport": "platform"}}, {"type": "node", "id": 1844791911, "lat": 33.7808205, "lon": -118.309909, "tags": {"bench": "yes", "bin": "yes", "bus": "yes", "highway": "bus_stop", "name": "Western and Leesdale", "public_transport": "platform", "shelter": "yes"}}, {"type": "node", "id": 1855318011, "lat": 33.7896083, "lon": -118.311764, "tags": {"bench": "no", "bin": "yes", "bus": "yes", "highway": "bus_stop", "public_transport": "platform", "shelter": "no", "tactile_paving": "no"}}, {"type": "node", "id": 1855318941, "lat": 33.7894125, "lon": -118.320283, "tags": {"bench": "yes", "bin": "yes", "bus": "yes", "highway": "bus_stop", "public_transport": "platform", "shelter": "no"}}, {"type": "node", "id": 1855319664, "lat": 33.7896627, "lon": -118.325653, "tags": {"bench": "yes", "bin": "yes", "bus": "yes", "highway": "bus_stop", "lit": "no", "operator": "Metro", "public_transport": "platform", "shelter": "no", "tactile_paving": "no"}}, {"type": "node", "id": 1855322158, "lat": 33.7923657, "lon": -118.333338, "tags": {"bench": "yes", "bin": "yes", "bus": "yes", "highway": "bus_stop", "lit": "no", "name": "232", "operator": "Metro", "public_transport": "platform", "shelter": "no", "tactile_paving": "no"}}, {"type": "node", "id": 1855323334, "lat": 33.805272, "lon": -118.350988, "tags": {"bench": "yes", "bin": "yes", "bus": "yes", "highway": "bus_stop", "lit": "yes", "name": "8", "network": "Torrance Transit", "network:wikidata": "Q7826932", "network:wikipedia": "en:Torrance Transit", "operator": "Torrance Transit", "public_transport": "platform", "shelter": "yes", "tactile_paving": "no", "website": "https://www.torranceca.gov/128.htm", "wheelchair": "yes"}}, {"type": "node", "id": 1855323969, "lat": 33.8047672, "lon": -118.351262, "tags": {"bench": "yes", "bin": "yes", "bus": "yes", "highway": "bus_stop", "lit": "yes", "name": "344", "operator": "Metro", "public_transport": "platform", "shelter": "no", "wheelchair": "yes"}}, {"type": "node", "id": 1855324663, "lat": 33.7766575, "lon": -118.375339, "tags": {"bench": "yes", "bin": "yes", "bus": "yes", "departures_board": "no", "highway": "bus_stop", "level": "0", "lit": "yes", "public_transport": "platform", "shelter": "no", "tactile_paving": "no", "wheelchair": "no"}}, {"type": "node", "id": 1982618091, "lat": 34.0136604, "lon": -118.4916499, "tags": {"light_rail": "yes", "name": "Downtown Santa Monica", "network": "LACMTA", "operator": "Los Angeles County Metropolitan Transportation Authority", "public_transport": "station", "railway": "station", "station": "light_rail", "wheelchair": "yes", "wikidata": "Q5148685"}}, {"type": "node", "id": 2030857467, "lat": 33.8361624, "lon": -118.31534, "tags": {"bench": "yes", "bus": "yes", "highway": "bus_stop", "name": "Torrance/Cabrillo Van Ness", "network": "Torrance Transit", "network:wikidata": "Q7826932", "network:wikipedia": "en:Torrance Transit", "operator": "Torrance Transit", "public_transport": "platform", "shelter": "no"}}, {"type": "node", "id": 2076440723, "lat": 34.0492882, "lon": -118.461279, "tags": {"bench": "no", "bin": "yes", "bus": "yes", "highway": "bus_stop", "name": "Wilshire & Barrington", "network": "Metro Local;Big Blue Bus", "network:wikidata": "Q77610;Q4905149", "network:wikipedia": "en:Metro Local;en:Big Blue Bus", "operator": "Los Angeles County Metropolitan Transportation Authority", "operator:wikidata": "Q3259702", "operator:wikipedia": "en:Los Angeles County Metropolitan Transportation Authority", "public_transport": "platform", "shelter": "no"}}, {"type": "node", "id": 2076440724, "lat": 34.0492015, "lon": -118.461008, "tags": {"bench": "yes", "bin": "yes", "bus": "yes", "highway": "bus_stop", "name": "Wilshire & Barrington", "network": "Metro Local;Metro Rapid;Big Blue Bus", "network:wikidata": "Q77610;Q75436;Q4905149", "network:wikipedia": "en:Metro Local;en:Metro Rapid;en:Big Blue Bus", "operator": "Los Angeles County Metropolitan Transportation Authority", "operator:wikidata": "Q3259702", "operator:wikipedia": "en:Los Angeles County Metropolitan Transportation Authority", "public_transport": "platform", "shelter": "yes", "tactile_paving": "no"}}, {"type": "node", "id": 2076467845, "lat": 34.0486021, "lon": -118.44023, "tags": {"bench": "yes", "bin": "yes", "bus": "yes", "highway": "bus_stop", "name": "Santa Monica & Veteran", "network": "Big Blue Bus;Metro Local", "network:wikidata": "Q4905149;Q77610", "network:wikipedia": "en:Big Blue Bus;en:Metro Local", "operator": "Big Blue Bus;Los Angeles County Metropolitan Transportation Authority", "operator:wikidata": "Q3259702", "operator:wikipedia": "en:Los Angeles County Metropolitan Transportation Authority", "public_transport": "platform", "shelter": "no"}}, {"type": "node", "id": 2076467862, "lat": 34.0497162, "lon": -118.437633, "tags": {"bench": "yes", "bin": "yes", "bus": "yes", "highway": "bus_stop", "name": "Santa Monica & Westwood", "network": "Big Blue Bus;Metro Local", "network:wikidata": "Q4905149;Q77610", "network:wikipedia": "en:Big Blue Bus;en:Metro Local", "operator": "Big Blue Bus;Los Angeles County Metropolitan Transportation Authority", "operator:wikidata": "Q3259702", "operator:wikipedia": "en:Los Angeles County Metropolitan Transportation Authority", "public_transport": "platform", "shelter": "no"}}, {"type": "node", "id": 2076467867, "lat": 34.0488777, "lon": -118.440663, "tags": {"bench": "yes", "bus": "yes", "highway": "bus_stop", "name": "Santa Monica & Veteran", "network": "Big Blue Bus;Metro Local", "network:wikidata": "Q4905149;Q77610", "network:wikipedia": "en:Big Blue Bus;en:Metro Local", "operator": "Big Blue Bus;Los Angeles County Metropolitan Transportation Authority", "operator:wikidata": "Q3259702", "operator:wikipedia": "en:Los Angeles County Metropolitan Transportation Authority", "public_transport": "platform", "shelter": "no"}}, {"type": "node", "id": 2076467907, "lat": 34.0497433, "lon": -118.4361781, "tags": {"bench": "yes", "bin": "no", "bus": "yes", "highway": "bus_stop", "name": "Santa Monica & Westwood", "network": "Metro Local", "network:wikidata": "Q77610", "network:wikipedia": "en:Los Angeles Metro Bus", "operator": "Los Angeles County Metropolitan Transportation Authority", "operator:wikidata": "Q3259702", "operator:wikipedia": "en:Los Angeles County Metropolitan Transportation Authority", "public_transport": "platform", "shelter": "no"}}, {"type": "node", "id": 2076493007, "lat": 34.0472191, "lon": -118.444134, "tags": {"bench": "yes", "bus": "yes", "highway": "bus_stop", "name": "Sepulveda & Santa Monica", "network": "Metro Local;Metro Rapid;Culver CityBus", "network:wikidata": "Q77610;Q75436;Q5193719", "network:wikipedia": "en:Metro Rapid;en:Culver CityBus", "operator": "Los Angeles County Metropolitan Transportation Authority;Culver CityBus", "operator:wikidata": "Q3259702", "operator:wikipedia": "en:Los Angeles County Metropolitan Transportation Authority", "public_transport": "platform", "route_ref": "761", "shelter": "yes"}}, {"type": "node", "id": 2076493010, "lat": 34.0476536, "lon": -118.444869, "tags": {"bench": "no", "bus": "yes", "highway": "bus_stop", "name": "Santa Monica & Sepulveda", "network": "Big Blue Bus;Metro Local", "network:wikidata": "Q4905149;Q77610", "network:wikipedia": "en:Big Blue Bus;en:Metro Local", "operator": "Big Blue Bus;Los Angeles County Metropolitan Transportation Authority", "operator:wikidata": "Q3259702", "operator:wikipedia": "en:Los Angeles County Metropolitan Transportation Authority", "public_transport": "platform", "shelter": "no"}}, {"type": "node", "id": 2076493013, "lat": 34.0477046, "lon": -118.443534, "tags": {"bench": "yes", "bin": "yes", "bus": "yes", "highway": "bus_stop", "lit": "yes", "name": "Santa Monica & Sepulveda", "network": "Big Blue Bus;Metro Local", "network:wikidata": "Q4905149;Q77610", "network:wikipedia": "en:Big Blue Bus;en:Metro Local", "operator": "Big Blue Bus;Los Angeles County Metropolitan Transportation Authority", "operator:wikidata": "Q3259702", "operator:wikipedia": "en:Los Angeles County Metropolitan Transportation Authority", "public_transport": "platform", "ref": "2145", "shelter": "no", "tactile_paving": "no"}}, {"type": "node", "id": 2076493017, "lat": 34.0479609, "lon": -118.444419, "tags": {"bench": "yes", "bus": "yes", "highway": "bus_stop", "name": "Sepulveda & Santa Monica", "network": "Metro Local;Metro Rapid;Culver CityBus", "network:wikidata": "Q77610;Q75436;Q5193719", "network:wikipedia": "en:Metro Rapid;en:Culver CityBus", "operator": "Los Angeles County Metropolitan Transportation Authority;Culver CityBus", "operator:wikidata": "Q3259702", "operator:wikipedia": "en:Los Angeles County Metropolitan Transportation Authority", "public_transport": "platform", "shelter": "yes"}}, {"type": "node", "id": 2375749935, "lat": 34.0333064, "lon": -118.7341252, "tags": {"bench": "yes", "bus": "yes", "highway": "bus_stop", "name": "Pacific Coast Highway & Corral Creek Bridge", "network": "Metro Express", "network:wikidata": "Q77610", "network:wikipedia": "en:Los Angeles Metro Bus", "operator": "Los Angeles County Metropolitan Transportation Authority", "operator:wikidata": "Q3259702", "operator:wikipedia": "en:Los Angeles County Metropolitan Transportation Authority", "public_transport": "platform", "shelter": "no"}}, {"type": "node", "id": 2375749936, "lat": 34.033539, "lon": -118.7345443, "tags": {"bus": "yes", "highway": "bus_stop", "name": "Pacific Coast Highway & Corral Creek Bridge", "network": "Metro Express", "network:wikidata": "Q77610", "network:wikipedia": "en:Los Angeles Metro Bus", "operator": "Los Angeles County Metropolitan Transportation Authority", "operator:wikidata": "Q3259702", "operator:wikipedia": "en:Los Angeles County Metropolitan Transportation Authority", "public_transport": "platform"}}, {"type": "node", "id": 2592234968, "lat": 33.805253, "lon": -118.350988, "tags": {"bench": "yes", "bin": "yes", "bus": "yes", "highway": "bus_stop", "lit": "yes", "name": "344", "public_transport": "platform", "ref": "344", "shelter": "yes", "tactile_paving": "no", "wheelchair": "yes"}}, {"type": "node", "id": 2646455624, "lat": 33.7959787, "lon": -118.338626, "tags": {"bench": "yes", "bin": "yes", "bus": "yes", "highway": "bus_stop", "lit": "no", "name": "232", "operator": "Metro", "public_transport": "platform", "shelter": "yes", "tactile_paving": "no"}}, {"type": "node", "id": 2650858114, "lat": 33.8047206, "lon": -118.350669, "tags": {"bench": "yes", "bin": "no", "bus": "yes", "highway": "bus_stop", "lit": "yes", "name": "232", "public_transport": "platform", "shelter": "yes", "tactile_paving": "no", "wheelchair": "yes"}}, {"type": "node", "id": 2650858118, "lat": 33.8049491, "lon": -118.350562, "tags": {"bench": "yes", "bin": "no", "bus": "yes", "highway": "bus_stop", "lit": "no", "name": "232", "public_transport": "platform", "shelter": "yes", "tactile_paving": "no", "wheelchair": "yes"}}, {"type": "node", "id": 2687983066, "lat": 34.0422375, "lon": -118.346672, "tags": {"bench": "no", "bin": "yes", "bus": "yes", "highway": "bus_stop", "name": "La Brea & Pickford", "network": "Metro Local", "network:wikidata": "Q77610", "network:wikipedia": "en:Metro Local", "operator": "Los Angeles County Metropolitan Transportation Authority", "operator:wikidata": "Q3259702", "operator:wikipedia": "en:Los Angeles County Metropolitan Transportation Authority", "public_transport": "platform", "shelter": "no", "tactile_paving": "no"}}, {"type": "node", "id": 2707561764, "lat": 33.9768261, "lon": -118.386169, "tags": {"bench": "yes", "bus": "yes", "highway": "bus_stop", "name": "Centinela & Green Valley", "network": "Metro Local", "network:wikidata": "Q77610", "network:wikipedia": "en:Metro Local", "operator": "Los Angeles County Metropolitan Transportation Authority", "operator:wikidata": "Q3259702", "operator:wikipedia": "en:Los Angeles County Metropolitan Transportation Authority", "public_transport": "platform", "shelter": "no"}}, {"type": "node", "id": 2709017313, "lat": 33.9305229, "lon": -118.416085, "tags": {"bench": "yes", "bin": "yes", "bus": "yes", "covered": "no", "highway": "bus_stop", "kerb": "raised", "name": "Main Street / Imperial Avenue", "public_transport": "platform", "ref": "218", "shelter": "no", "surface": "concrete", "tactile_paving": "no"}}, {"type": "node", "id": 2709017693, "lat": 33.9306357, "lon": -118.4158791, "tags": {"bench": "yes", "bin": "yes", "bus": "yes", "covered": "no", "highway": "bus_stop", "kerb": "raised", "name": "Main Street / Imperial Avenue", "public_transport": "platform", "ref": "154", "shelter": "yes", "surface": "concrete", "tactile_paving": "no"}}, {"type": "node", "id": 2757492432, "lat": 34.0231598, "lon": -118.480379, "tags": {"light_rail": "yes", "name": "17th Street/SMC", "network": "LACMTA", "operator": "Los Angeles County Metropolitan Transportation Authority", "public_transport": "station", "railway": "station", "station": "light_rail", "wheelchair": "yes", "wikidata": "Q5148684"}}, {"type": "node", "id": 2894787296, "lat": 33.8371135, "lon": -118.3537468, "tags": {"bench": "yes", "bin": "yes", "bus": "yes", "highway": "bus_stop", "lit": "no", "name": "Hawthorne/Torrance", "public_transport": "platform", "ref": "344", "shelter": "yes", "tactile_paving": "no"}}, {"type": "node", "id": 2894787297, "lat": 33.8377072, "lon": -118.3541104, "tags": {"bench": "yes", "bin": "yes", "bus": "yes", "highway": "bus_stop", "public_transport": "platform", "shelter": "yes", "tactile_paving": "no"}}, {"type": "node", "id": 2894787298, "lat": 33.8379094, "lon": -118.3534633, "tags": {"bench": "yes", "bin": "yes", "bus": "yes", "highway": "bus_stop", "lit": "no", "public_transport": "platform", "shelter": "yes", "tactile_paving": "no"}}, {"type": "node", "id": 2894787299, "lat": 33.8374462, "lon": -118.3526345, "tags": {"bus": "yes", "departures_board": "no", "highway": "bus_stop", "name": "Torrance/Hawthorne", "public_transport": "platform", "surface": "asphalt"}}, {"type": "node", "id": 2894787300, "lat": 33.8334691, "lon": -118.3531614, "tags": {"bench": "yes", "bin": "yes", "bus": "yes", "highway": "bus_stop", "lit": "no", "name": "Hawthorne/Del Amo Circle", "public_transport": "platform", "shelter": "yes", "tactile_paving": "no"}}, {"type": "node", "id": 2894787401, "lat": 33.8335024, "lon": -118.3527578, "tags": {"bench": "yes", "bin": "yes", "bus": "yes", "highway": "bus_stop", "lit": "no", "public_transport": "platform", "ref": "344", "shelter": "yes", "tactile_paving": "no"}}, {"type": "node", "id": 2894787402, "lat": 33.8318286, "lon": -118.352495, "tags": {"bench": "no", "bin": "no", "bus": "yes", "highway": "bus_stop", "lit": "no", "public_transport": "platform", "shelter": "yes", "tactile_paving": "no"}}, {"type": "node", "id": 2894787403, "lat": 33.8311401, "lon": -118.3527393, "tags": {"bench": "no", "bin": "yes", "bus": "yes", "highway": "bus_stop", "lit": "no", "public_transport": "platform", "shelter": "yes", "tactile_paving": "no"}}, {"type": "node", "id": 2894787404, "lat": 33.8312224, "lon": -118.3523307, "tags": {"bench": "yes", "bin": "yes", "bus": "yes", "highway": "bus_stop", "public_transport": "platform", "shelter": "yes", "tactile_paving": "no"}}, {"type": "node", "id": 2894787406, "lat": 33.8287025, "lon": -118.3519297, "tags": {"bench": "yes", "bin": "yes", "bus": "yes", "highway": "bus_stop", "lit": "no", "public_transport": "platform", "shelter": "yes", "tactile_paving": "no"}}, {"type": "node", "id": 2894787407, "lat": 33.8281322, "lon": -118.3522519, "tags": {"bench": "yes", "bin": "yes", "bus": "yes", "highway": "bus_stop", "lit": "no", "name": "Hawthorne/Center Way", "panoramax": "73d954d9-69ef-427e-815b-74a296ee29ab", "panoramax:0": "7a6708e0-9106-46bb-a953-43ce5744f623", "public_transport": "platform", "ref": "344", "shelter": "yes", "tactile_paving": "no", "wheelchair": "yes"}}, {"type": "node", "id": 2894787408, "lat": 33.8251761, "lon": -118.3515841, "tags": {"bench": "yes", "bin": "yes", "bus": "yes", "highway": "bus_stop", "lit": "yes", "public_transport": "platform", "shelter": "yes", "tactile_paving": "no"}}, {"type": "node", "id": 2894787439, "lat": 33.8376923, "lon": -118.3577903, "tags": {"bench": "yes", "bus": "yes", "check_date:shelter": "2023-09-13", "highway": "bus_stop", "network": "Torrance Transit", "network:wikidata": "Q7826932", "panoramax": "20c23a75-2225-48dd-8aeb-62d3190bc58b", "public_transport": "platform", "shelter": "yes", "tactile_paving": "no", "wheelchair": "yes"}}, {"type": "node", "id": 2894787440, "lat": 33.8374797, "lon": -118.3582233, "tags": {"bench": "no", "bin": "no", "bus": "yes", "highway": "bus_stop", "public_transport": "platform", "shelter": "no", "tactile_paving": "no"}}, {"type": "node", "id": 2894787441, "lat": 33.8374717, "lon": -118.3619129, "tags": {"bench": "yes", "bin": "yes", "bus": "yes", "highway": "bus_stop", "public_transport": "platform", "shelter": "yes", "tactile_paving": "no"}}, {"type": "node", "id": 2894787442, "lat": 33.837703, "lon": -118.362875, "tags": {"bench": "yes", "bin": "yes", "bus": "yes", "highway": "bus_stop", "public_transport": "platform", "shelter": "yes", "tactile_paving": "no"}}, {"type": "node", "id": 2894787443, "lat": 33.8379532, "lon": -118.36229, "tags": {"bench": "yes", "bin": "yes", "bus": "yes", "highway": "bus_stop", "public_transport": "platform", "shelter": "yes", "tactile_paving": "no"}}, {"type": "node", "id": 2894787444, "lat": 33.8377136, "lon": -118.366489, "tags": {"bench": "yes", "bin": "yes", "bus": "yes", "highway": "bus_stop", "public_transport": "platform", "shelter": "no"}}, {"type": "node", "id": 2894787445, "lat": 33.8377136, "lon": -118.369563, "tags": {"bench": "yes", "bin": "yes", "bus": "yes", "highway": "bus_stop", "public_transport": "platform", "shelter": "no", "tactile_paving": "no"}}, {"type": "node", "id": 2894787446, "lat": 33.8377101, "lon": -118.371311, "tags": {"bus": "yes", "highway": "bus_stop", "public_transport": "platform"}}, {"type": "node", "id": 2894787447, "lat": 33.8374825, "lon": -118.3719796, "tags": {"bus": "yes", "highway": "bus_stop", "public_transport": "platform"}}, {"type": "node", "id": 2894787448, "lat": 33.838754, "lon": -118.3759278, "tags": {"bench": "yes", "bin": "yes", "bus": "yes", "highway": "bus_stop", "public_transport": "platform", "shelter": "yes", "tactile_paving": "no"}}, {"type": "node", "id": 2894787449, "lat": 33.8389144, "lon": -118.376719, "tags": {"bench": "yes", "bin": "yes", "bus": "yes", "highway": "bus_stop", "public_transport": "platform", "shelter": "no"}}, {"type": "node", "id": 2894787450, "lat": 33.8384044, "lon": -118.3786926, "tags": {"bus": "yes", "highway": "bus_stop", "public_transport": "platform"}}, {"type": "node", "id": 2894787451, "lat": 33.8380745, "lon": -118.378779, "tags": {"bus": "yes", "highway": "bus_stop", "public_transport": "platform"}}, {"type": "node", "id": 2894787452, "lat": 33.837923, "lon": -118.382485, "tags": {"bench": "yes", "bin": "yes", "bus": "yes", "highway": "bus_stop", "public_transport": "platform", "shelter": "no", "tactile_paving": "no"}}, {"type": "node", "id": 2894787453, "lat": 33.8376401, "lon": -118.382357, "tags": {"bench": "yes", "bin": "yes", "bus": "yes", "highway": "bus_stop", "public_transport": "platform", "shelter": "no", "tactile_paving": "no"}}, {"type": "node", "id": 2894787454, "lat": 33.8380678, "lon": -118.384964, "tags": {"bench": "yes", "bin": "yes", "bus": "yes", "highway": "bus_stop", "public_transport": "platform", "shelter": "no", "tactile_paving": "no"}}, {"type": "node", "id": 2894787455, "lat": 33.838607, "lon": -118.385353, "tags": {"bench": "yes", "bin": "yes", "bus": "yes", "check_date:shelter": "2026-05-01", "highway": "bus_stop", "public_transport": "platform", "shelter": "no", "tactile_paving": "no"}}, {"type": "node", "id": 2894787456, "lat": 33.8380901, "lon": -118.387008, "tags": {"bus": "yes", "highway": "bus_stop", "public_transport": "platform"}}, {"type": "node", "id": 2894787457, "lat": 33.8383877, "lon": -118.3898465, "tags": {"bench": "yes", "bin": "yes", "bus": "yes", "highway": "bus_stop", "name": "r", "public_transport": "platform", "shelter": "no", "tactile_paving": "no"}}, {"type": "node", "id": 2894787458, "lat": 33.8385978, "lon": -118.3879372, "tags": {"bench": "yes", "bin": "yes", "bus": "yes", "covered": "no", "highway": "bus_stop", "kerb": "raised", "name": "Catalina Avenue / Torrance Boulevard", "public_transport": "platform", "ref": "302", "shelter": "no", "surface": "concrete", "tactile_paving": "no"}}, {"type": "node", "id": 2894787459, "lat": 33.8386404, "lon": -118.388268, "tags": {"bus": "yes", "highway": "bus_stop", "public_transport": "platform"}}, {"type": "node", "id": 2894787460, "lat": 33.8379319, "lon": -118.387874, "tags": {"bus": "yes", "highway": "bus_stop", "public_transport": "platform"}}, {"type": "node", "id": 2894797930, "lat": 33.8376847, "lon": -118.3496994, "tags": {"bus": "yes", "highway": "bus_stop", "name": "Torrance/Amie", "public_transport": "platform", "shelter": "yes"}}, {"type": "node", "id": 2894797931, "lat": 33.8374403, "lon": -118.349708, "tags": {"bus": "yes", "departures_board": "no", "highway": "bus_stop", "name": "Torrance/Amie", "network": "Torrance Transit", "network:wikidata": "Q7826932", "network:wikipedia": "en:Torrance Transit", "operator": "Torrance Transit", "public_transport": "platform"}}, {"type": "node", "id": 2894797962, "lat": 33.8376322, "lon": -118.3455352, "tags": {"bus": "yes", "highway": "bus_stop", "name": "Torrance/Madrona", "public_transport": "platform"}}, {"type": "node", "id": 2894797981, "lat": 33.8373088, "lon": -118.344526, "tags": {"bench": "yes", "bin": "yes", "bus": "yes", "departures_board": "no", "highway": "bus_stop", "name": "Torrance/Madrona", "network": "Torrance Transit", "network:wikidata": "Q7826932", "network:wikipedia": "en:Torrance Transit", "operator": "Torrance Transit", "public_transport": "platform", "shelter": "no"}}, {"type": "node", "id": 2894797982, "lat": 33.8370795, "lon": -118.3448132, "tags": {"bus": "yes", "highway": "bus_stop", "public_transport": "platform", "shelter": "yes"}}, {"type": "node", "id": 2894797983, "lat": 33.8368678, "lon": -118.3451423, "tags": {"bus": "yes", "highway": "bus_stop", "public_transport": "platform", "shelter": "no"}}, {"type": "node", "id": 2894797984, "lat": 33.8369943, "lon": -118.3425304, "tags": {"bus": "yes", "highway": "bus_stop", "name": "Torrance Bl./Torrance Civic Center", "public_transport": "platform", "shelter": "no"}}, {"type": "node", "id": 2894798042, "lat": 33.8363011, "lon": -118.3397124, "tags": {"bench": "yes", "bin": "yes", "bus": "yes", "highway": "bus_stop", "name": "Torrance/Maple", "public_transport": "platform", "shelter": "yes", "tactile_paving": "no"}}, {"type": "node", "id": 2894798043, "lat": 33.8362198, "lon": -118.340284, "tags": {"bench": "yes", "bin": "yes", "bus": "yes", "highway": "bus_stop", "name": "Torrance/Maple", "network": "Torrance Transit", "network:wikidata": "Q7826932", "network:wikipedia": "en:Torrance Transit", "operator": "Torrance Transit", "public_transport": "platform", "shelter": "yes", "tactile_paving": "no"}}, {"type": "node", "id": 2894798044, "lat": 33.8363698, "lon": -118.3343917, "tags": {"bus": "yes", "highway": "bus_stop", "name": "Torrance/Hickory", "public_transport": "platform"}}, {"type": "node", "id": 2894798045, "lat": 33.8361934, "lon": -118.334791, "tags": {"bus": "yes", "highway": "bus_stop", "name": "Torrance/Hickory", "network": "Torrance Transit", "network:wikidata": "Q7826932", "network:wikipedia": "en:Torrance Transit", "operator": "Torrance Transit", "public_transport": "platform"}}, {"type": "node", "id": 2894798046, "lat": 33.836408, "lon": -118.3321832, "tags": {"bus": "yes", "highway": "bus_stop", "name": "Torrance/Fern", "public_transport": "platform"}}, {"type": "node", "id": 2894798047, "lat": 33.836211, "lon": -118.331797, "tags": {"bus": "yes", "highway": "bus_stop", "name": "Torrance/Fern", "network": "Torrance Transit", "network:wikidata": "Q7826932", "network:wikipedia": "en:Torrance Transit", "operator": "Torrance Transit", "public_transport": "platform"}}, {"type": "node", "id": 2894798048, "lat": 33.8364315, "lon": -118.3291962, "tags": {"bench": "yes", "bin": "yes", "bus": "yes", "highway": "bus_stop", "name": "Torrance/Crenshaw", "public_transport": "platform", "shelter": "yes"}}, {"type": "node", "id": 2894798049, "lat": 33.8367519, "lon": -118.328583, "tags": {"bench": "yes", "bin": "yes", "bus": "yes", "highway": "bus_stop", "name": "Crenshaw/Torrance", "public_transport": "platform", "shelter": "no"}}, {"type": "node", "id": 2894798050, "lat": 33.8362404, "lon": -118.328382, "tags": {"bench": "yes", "bin": "yes", "bus": "yes", "highway": "bus_stop", "name": "Torrance/Crenshaw", "network": "Torrance Transit", "network:wikidata": "Q7826932", "network:wikipedia": "en:Torrance Transit", "operator": "Torrance Transit", "public_transport": "platform", "shelter": "yes", "tactile_paving": "no"}}, {"type": "node", "id": 2894798051, "lat": 33.8362797, "lon": -118.325367, "tags": {"bus": "yes", "highway": "bus_stop", "name": "Torrance/Madrid", "network": "Torrance Transit", "network:wikidata": "Q7826932", "network:wikipedia": "en:Torrance Transit", "operator": "Torrance Transit", "public_transport": "platform", "shelter": "no"}}, {"type": "node", "id": 2894798052, "lat": 33.836464, "lon": -118.3247575, "tags": {"bus": "yes", "highway": "bus_stop", "name": "Torrance/Madrid", "public_transport": "platform"}}, {"type": "node", "id": 2894798053, "lat": 33.8364896, "lon": -118.322761, "tags": {"bus": "yes", "highway": "bus_stop", "name": "Torrance/Cota", "public_transport": "platform"}}, {"type": "node", "id": 2894798054, "lat": 33.8363258, "lon": -118.322348, "tags": {"bus": "yes", "highway": "bus_stop", "name": "Torrance/Cota", "network": "Torrance Transit", "network:wikidata": "Q7826932", "network:wikipedia": "en:Torrance Transit", "operator": "Torrance Transit", "public_transport": "platform"}}, {"type": "node", "id": 2894798055, "lat": 33.8365075, "lon": -118.3202715, "tags": {"bench": "yes", "bus": "yes", "highway": "bus_stop", "name": "Torrance/Arlington", "public_transport": "platform", "shelter": "yes"}}, {"type": "node", "id": 2894798056, "lat": 33.836354, "lon": -118.319985, "tags": {"bench": "yes", "bin": "yes", "bus": "yes", "highway": "bus_stop", "name": "Torrance/Arlington", "network": "Torrance Transit", "network:wikidata": "Q7826932", "network:wikipedia": "en:Torrance Transit", "operator": "Torrance Transit", "public_transport": "platform", "shelter": "no"}}, {"type": "node", "id": 2894799363, "lat": 33.8362618, "lon": -118.318247, "tags": {"bench": "yes", "bus": "yes", "highway": "bus_stop", "name": "Torrance/Engracia", "network": "Torrance Transit", "network:wikidata": "Q7826932", "network:wikipedia": "en:Torrance Transit", "operator": "Torrance Transit", "public_transport": "platform", "shelter": "no"}}, {"type": "node", "id": 2894799364, "lat": 33.8363735, "lon": -118.3174725, "tags": {"bench": "yes", "bin": "yes", "bus": "yes", "highway": "bus_stop", "name": "Torrance/Engracia", "public_transport": "platform", "shelter": "yes"}}, {"type": "node", "id": 2894799365, "lat": 33.8365613, "lon": -118.315677, "tags": {"bus": "yes", "highway": "bus_stop", "public_transport": "platform"}}, {"type": "node", "id": 2898494451, "lat": 33.8386645, "lon": -118.3903384, "tags": {"bench": "yes", "bin": "yes", "bus": "yes", "highway": "bus_stop", "lit": "yes", "name": "Redondo Beach Pier", "public_transport": "platform", "ref": "301", "shelter": "no", "tactile_paving": "no"}}, {"type": "node", "id": 2978455784, "lat": 33.7896321, "lon": -118.319557, "tags": {"bench": "yes", "bin": "yes", "bus": "yes", "highway": "bus_stop", "operator": "Metro", "public_transport": "platform", "shelter": "no"}}, {"type": "node", "id": 2978455785, "lat": 33.7896501, "lon": -118.322949, "tags": {"bench": "no", "bin": "no", "bus": "yes", "highway": "bus_stop", "lit": "no", "operator": "metro", "public_transport": "platform", "shelter": "no", "tactile_paving": "no"}}, {"type": "node", "id": 2978455786, "lat": 33.7897952, "lon": -118.329361, "tags": {"bench": "yes", "bin": "no", "bus": "yes", "highway": "bus_stop", "lit": "no", "operator": "Metro", "public_transport": "platform", "shelter": "no", "tactile_paving": "no"}}, {"type": "node", "id": 2978455787, "lat": 33.7961607, "lon": -118.33841, "tags": {"bench": "yes", "bin": "yes", "bus": "yes", "highway": "bus_stop", "operator": "Metro", "public_transport": "platform", "shelter": "yes", "tactile_paving": "no", "wheelchair": "yes"}}, {"type": "node", "id": 3119815116, "lat": 34.0007164, "lon": -118.358802, "tags": {"bench": "yes", "bus": "yes", "highway": "bus_stop", "name": "La Brea & Don Lorenzo", "network": "Metro Local", "network:wikidata": "Q77610", "operator": "Los Angeles County Metropolitan Transportation Authority", "operator:wikidata": "Q3259702", "public_transport": "platform", "shelter": "yes"}}, {"type": "node", "id": 3181671981, "lat": 34.0354335, "lon": -118.4341435, "tags": {"light_rail": "yes", "name": "Expo/Sepulveda", "network": "LACMTA", "operator": "Los Angeles County Metropolitan Transportation Authority", "public_transport": "station", "railway": "station", "station": "light_rail", "wheelchair": "yes", "wikidata": "Q5421457"}}, {"type": "node", "id": 3181671982, "lat": 34.0316631, "lon": -118.4531105, "tags": {"light_rail": "yes", "name": "Expo/Bundy", "network": "LACMTA", "operator": "Los Angeles County Metropolitan Transportation Authority", "public_transport": "station", "railway": "station", "station": "light_rail", "wheelchair": "yes", "wikidata": "Q5421454"}}, {"type": "node", "id": 3201710490, "lat": 34.0060191, "lon": -118.429026, "tags": {"bench": "yes", "bin": "no", "bus": "yes", "highway": "bus_stop", "name": "Venice & Inglewood", "network": "Metro Local", "network:wikidata": "Q77610", "network:wikipedia": "en:Metro Local", "operator": "Los Angeles County Metropolitan Transportation Authority", "operator:wikidata": "Q3259702", "operator:wikipedia": "en:Los Angeles County Metropolitan Transportation Authority", "public_transport": "platform", "shelter": "no", "tactile_paving": "no"}}, {"type": "node", "id": 3201710491, "lat": 34.0049579, "lon": -118.4308257, "tags": {"bench": "yes", "bin": "yes", "bus": "yes", "highway": "bus_stop", "lit": "no", "name": "Venice & Grand View", "network": "Metro Local", "network:wikidata": "Q77610", "network:wikipedia": "en:Metro Local", "operator": "Los Angeles County Metropolitan Transportation Authority", "operator:wikidata": "Q3259702", "operator:wikipedia": "en:Los Angeles County Metropolitan Transportation Authority", "public_transport": "platform", "ref": "33", "shelter": "no", "tactile_paving": "no"}}, {"type": "node", "id": 3205686693, "lat": 34.0228056, "lon": -118.405901, "tags": {"bench": "yes", "bus": "yes", "highway": "bus_stop", "name": "Motor & Regent", "network": "Culver CityBus", "network:wikidata": "Q5193719", "network:wikipedia": "en:Culver CityBus", "operator": "Culver City Bus", "public_transport": "platform", "shelter": "no"}}, {"type": "node", "id": 3205686702, "lat": 34.0294285, "lon": -118.410727, "tags": {"bench": "yes", "bin": "yes", "bus": "yes", "description": "LADOT 431", "highway": "bus_stop", "name": "Motor & National", "network": "Commuter Express", "network:wikidata": "Q112028995", "operator": "Los Angeles Department of Transportation", "operator:wikidata": "Q3259703", "public_transport": "platform", "ref": "8924", "shelter": "no"}}, {"type": "node", "id": 3254606626, "lat": 33.9796206, "lon": -118.394195, "tags": {"bench": "yes", "bus": "yes", "highway": "bus_stop", "name": "Sepulveda & Centinela", "network": "Culver CityBus;Metro Local", "network:wikidata": "Q5193719;Q77610", "network:wikipedia": "en:Culver CityBus;en:Metro Local", "operator": "Culver CityBus;Los Angeles County Metropolitan Transportation Authority", "operator:wikidata": "Q3259702", "operator:wikipedia": "en:Los Angeles County Metropolitan Transportation Authority", "public_transport": "platform", "shelter": "yes"}}, {"type": "node", "id": 3254606627, "lat": 33.9823852, "lon": -118.3865968, "tags": {"bench": "yes", "bus": "yes", "highway": "bus_stop", "name": "Green Valley & Buckingham", "network": "Metro Local", "network:wikidata": "Q77610", "network:wikipedia": "en:Metro Local", "note": "Line 108, 217", "operator": "Los Angeles County Metropolitan Transportation Authority", "operator:wikidata": "Q3259702", "operator:wikipedia": "en:Los Angeles County Metropolitan Transportation Authority", "public_transport": "platform", "shelter": "no"}}, {"type": "node", "id": 3254606628, "lat": 33.9823523, "lon": -118.3868861, "tags": {"bench": "yes", "bus": "yes", "highway": "bus_stop", "name": "Green Valley & Doverwood", "network": "Metro Local", "network:wikidata": "Q77610", "network:wikipedia": "en:Metro Local", "note": "Line 108, 217", "operator": "Los Angeles County Metropolitan Transportation Authority", "operator:wikidata": "Q3259702", "operator:wikipedia": "en:Los Angeles County Metropolitan Transportation Authority", "public_transport": "platform", "shelter": "yes"}}, {"type": "node", "id": 3445774682, "lat": 33.9886151, "lon": -118.380714, "tags": {"bench": "yes", "bus": "yes", "highway": "bus_stop", "name": "Buckingham & Slauson", "network": "Culver CityBus;Metro Local", "network:wikidata": "Q5193719;Q77610", "network:wikipedia": "en:Culver CityBus;en:Los Angeles Metro Bus", "operator": "Culver CityBus;Los Angeles County Metropolitan Transportation Authority", "operator:wikidata": "Q3259702", "operator:wikipedia": "en:Los Angeles County Metropolitan Transportation Authority", "public_transport": "platform", "shelter": "no"}}, {"type": "node", "id": 3881073410, "lat": 33.9879164, "lon": -118.394784, "tags": {"bus": "yes", "highway": "bus_stop", "local_ref": "1", "name": "Culver City Transit Center", "network": "Culver CityBus", "network:wikidata": "Q5193719", "network:wikipedia": "en:Culver CityBus", "public_transport": "platform"}}, {"type": "node", "id": 3881073411, "lat": 33.9880721, "lon": -118.394769, "tags": {"bus": "yes", "highway": "bus_stop", "local_ref": "2", "name": "Culver City Transit Center", "network": "Culver CityBus", "network:wikidata": "Q5193719", "network:wikipedia": "en:Culver CityBus", "public_transport": "platform"}}, {"type": "node", "id": 3881073412, "lat": 33.9882283, "lon": -118.394747, "tags": {"bench": "yes", "bus": "yes", "highway": "bus_stop", "local_ref": "3", "name": "Culver City Transit Center", "network": "Culver CityBus", "network:wikidata": "Q5193719", "network:wikipedia": "en:Culver CityBus", "operator": "Culver CityBus", "public_transport": "platform", "shelter": "yes"}}, {"type": "node", "id": 3881073413, "lat": 33.9880966, "lon": -118.394673, "tags": {"bench": "yes", "bus": "yes", "highway": "bus_stop", "local_ref": "4", "name": "Culver City Transit Center", "network": "Culver CityBus", "network:wikidata": "Q5193719", "network:wikipedia": "en:Culver CityBus", "operator": "Culver CityBus", "public_transport": "platform", "shelter": "yes"}}, {"type": "node", "id": 3881073414, "lat": 33.9879598, "lon": -118.394697, "tags": {"bus": "yes", "highway": "bus_stop", "local_ref": "5", "name": "Culver City Transit Center", "network": "Metro Local", "network:wikidata": "Q77610", "network:wikipedia": "en:Los Angeles Metro Bus", "operator": "Los Angeles County Metropolitan Transportation Authority", "operator:wikidata": "Q3259702", "operator:wikipedia": "en:Los Angeles County Metropolitan Transportation Authority", "public_transport": "platform", "route_ref": "108"}}, {"type": "node", "id": 3881073415, "lat": 33.9877963, "lon": -118.394713, "tags": {"bus": "yes", "highway": "bus_stop", "local_ref": "6", "name": "Culver City Transit Center", "network": "Metro Local", "network:wikidata": "Q77610", "network:wikipedia": "en:Los Angeles Metro Bus", "operator": "Los Angeles County Metropolitan Transportation Authority", "operator:wikidata": "Q3259702", "operator:wikipedia": "en:Los Angeles County Metropolitan Transportation Authority", "public_transport": "platform", "route_ref": "110"}}, {"type": "node", "id": 3946400184, "lat": 34.0205259, "lon": -118.403434, "tags": {"bench": "yes", "bin": "yes", "bus": "yes", "check_date:shelter": "2026-03-08", "highway": "bus_stop", "name": "Venice & Motor", "network": "Metro Local", "network:wikidata": "Q77610", "network:wikipedia": "en:Metro Local", "operator": "Los Angeles County Metropolitan Transportation Authority", "operator:wikidata": "Q3259702", "operator:wikipedia": "en:Los Angeles County Metropolitan Transportation Authority", "public_transport": "platform", "shelter": "yes", "tactile_paving": "no"}}, {"type": "node", "id": 3946400402, "lat": 34.0226843, "lon": -118.405541, "tags": {"bench": "no", "bin": "no", "bus": "yes", "check_date:shelter": "2025-12-20", "highway": "bus_stop", "name": "Motor & Regent", "network": "Culver CityBus", "network:wikidata": "Q5193719", "network:wikipedia": "en:Culver CityBus", "operator": "Culver City Bus", "public_transport": "platform", "shelter": "no", "tactile_paving": "no"}}, {"type": "node", "id": 3960923706, "lat": 34.0187444, "lon": -118.4027221, "tags": {"bench": "yes", "bin": "no", "bus": "yes", "check_date:bin": "2025-12-20", "check_date:shelter": "2025-12-20", "highway": "bus_stop", "name": "Motor & Washington", "network": "Big Blue Bus;Culver CityBus", "network:wikidata": "Q4905149;Q5193719", "network:wikipedia": "en:Big Blue Bus;en:Culver CityBus", "operator": "Culver City Bus;Big Blue Bus", "operator:wikidata": "Q4905149", "public_transport": "platform", "ref": "2988", "shelter": "no", "tactile_paving": "no"}}, {"type": "node", "id": 3960923707, "lat": 34.0189633, "lon": -118.402699, "tags": {"bench": "yes", "bin": "no", "bus": "yes", "highway": "bus_stop", "name": "Motor & Washington", "network": "Culver CityBus", "network:wikidata": "Q5193719", "network:wikipedia": "en:Culver CityBus", "operator": "Culver City Bus", "public_transport": "platform", "shelter": "no", "tactile_paving": "no"}}, {"type": "node", "id": 3960923719, "lat": 34.0207602, "lon": -118.404052, "tags": {"bench": "yes", "bin": "yes", "bus": "yes", "check_date:shelter": "2026-04-18", "highway": "bus_stop", "name": "Motor & Venice", "network": "Culver CityBus", "network:wikidata": "Q5193719", "network:wikipedia": "en:Culver CityBus", "operator": "Culver CityBus", "public_transport": "platform", "shelter": "yes", "tactile_paving": "no"}}, {"type": "node", "id": 3960923735, "lat": 34.0249569, "lon": -118.407535, "tags": {"bench": "no", "bin": "yes", "bus": "yes", "highway": "bus_stop", "name": "Motor & Tabor", "network": "Culver CityBus", "network:wikidata": "Q5193719", "network:wikipedia": "en:Culver CityBus", "operator": "Culver City Bus", "public_transport": "platform", "shelter": "no"}}, {"type": "node", "id": 3960923736, "lat": 34.0248381, "lon": -118.407201, "tags": {"bench": "no", "bin": "yes", "bus": "yes", "highway": "bus_stop", "name": "Motor & Tabor", "network": "Culver CityBus", "network:wikidata": "Q5193719", "network:wikipedia": "en:Culver CityBus", "operator": "Culver City Bus", "public_transport": "platform", "ref": "NCCB 327", "shelter": "no"}}, {"type": "node", "id": 3960923737, "lat": 34.0261469, "lon": -118.408216, "tags": {"bench": "yes", "bin": "yes", "bus": "yes", "highway": "bus_stop", "name": "Motor & Palms", "network": "Culver CityBus", "network:wikidata": "Q5193719", "network:wikipedia": "en:Culver CityBus", "operator": "Culver City Bus", "public_transport": "platform", "ref": "NCCB 328", "shelter": "yes"}}, {"type": "node", "id": 3960923747, "lat": 34.0278904, "lon": -118.409556, "tags": {"bench": "yes", "bin": "yes", "bus": "yes", "highway": "bus_stop", "name": "Motor & Woodbine", "network": "Culver CityBus", "network:wikidata": "Q5193719", "network:wikipedia": "en:Culver CityBus", "operator": "Culver CityBus", "public_transport": "platform", "ref": "NCCB 329", "shelter": "no", "tactile_paving": "no"}}, {"type": "node", "id": 3960923748, "lat": 34.0277503, "lon": -118.409698, "tags": {"bench": "yes", "bin": "yes", "bus": "yes", "highway": "bus_stop", "lit": "no", "name": "Motor & Woodbine", "network": "Culver CityBus", "network:wikidata": "Q5193719", "network:wikipedia": "en:Culver CityBus", "operator": "Culver CityBus", "public_transport": "platform", "ref": "361", "shelter": "no", "tactile_paving": "no"}}, {"type": "node", "id": 3960933181, "lat": 34.0291978, "lon": -118.410924, "tags": {"bench": "yes", "bin": "yes", "bus": "yes", "description": "Culver City 3", "highway": "bus_stop", "name": "National & Motor", "network": "Culver CityBus", "network:wikidata": "Q5193719", "network:wikipedia": "en:Culver CityBus", "operator": "Culver CityBus", "public_transport": "platform", "ref": "NCCB 330", "shelter": "yes", "tactile_paving": "no"}}, {"type": "node", "id": 3961825565, "lat": 34.0246381, "lon": -118.411942, "tags": {"bench": "yes", "bus": "yes", "highway": "bus_stop", "name": "Palms & Overland", "network": "Big Blue Bus", "network:wikidata": "Q4905149", "network:wikipedia": "en:Big Blue Bus", "operator": "City of Santa Monica", "operator:wikidata": "Q47164", "public_transport": "platform", "shelter": "no"}}, {"type": "node", "id": 3961825566, "lat": 34.0249043, "lon": -118.41118, "tags": {"bench": "yes", "bus": "yes", "highway": "bus_stop", "name": "Palms & Overland", "network": "Big Blue Bus;Culver CityBus", "network:wikidata": "Q4905149;Q5193719", "network:wikipedia": "en:Big Blue Bus;en:Culver CityBus", "operator": "City of Santa Monica", "operator:wikidata": "Q47164", "public_transport": "platform", "shelter": "no"}}, {"type": "node", "id": 3961992048, "lat": 34.0257048, "lon": -118.39503, "tags": {"bench": "yes", "bin": "yes", "bus": "yes", "highway": "bus_stop", "lit": "yes", "name": "Venice & Bagley", "network": "Metro Local", "network:wikidata": "Q77610", "operator": "Los Angeles County Metropolitan Transportation Authority", "operator:wikidata": "Q3259702", "public_transport": "platform", "ref": "33", "shelter": "no", "tactile_paving": "no"}}, {"type": "node", "id": 3961992049, "lat": 34.0269813, "lon": -118.392826, "tags": {"bench": "yes", "bin": "yes", "bus": "yes", "highway": "bus_stop", "name": "Venice & Culver", "network": "Metro Local", "network:wikidata": "Q77610", "network:wikipedia": "en:Metro Local", "operator": "Los Angeles County Metropolitan Transportation Authority", "operator:wikidata": "Q3259702", "operator:wikipedia": "en:Los Angeles County Metropolitan Transportation Authority", "public_transport": "platform", "shelter": "yes", "tactile_paving": "no"}}, {"type": "node", "id": 3961992381, "lat": 34.0235529, "lon": -118.398785, "tags": {"bench": "yes", "bin": "yes", "bus": "yes", "highway": "bus_stop", "name": "Venice & Hughes", "network": "Metro Local", "network:wikidata": "Q77610", "network:wikipedia": "en:Metro Local", "operator": "Los Angeles County Metropolitan Transportation Authority", "operator:wikidata": "Q3259702", "operator:wikipedia": "en:Los Angeles County Metropolitan Transportation Authority", "panoramax": "a468ed3d-300b-465c-926d-d933365b90f4", "public_transport": "platform", "shelter": "no", "tactile_paving": "no", "wheelchair": "yes"}}, {"type": "node", "id": 3961992398, "lat": 34.0216415, "lon": -118.402122, "tags": {"bench": "yes", "bus": "yes", "highway": "bus_stop", "name": "Venice & Jasmine", "network": "Metro Local", "network:wikidata": "Q77610", "network:wikipedia": "en:Metro Local", "operator": "Los Angeles County Metropolitan Transportation Authority", "operator:wikidata": "Q3259702", "operator:wikipedia": "en:Los Angeles County Metropolitan Transportation Authority", "public_transport": "platform", "shelter": "no"}}, {"type": "node", "id": 3961992407, "lat": 34.020443, "lon": -118.404246, "tags": {"bench": "yes", "bin": "yes", "bus": "yes", "highway": "bus_stop", "name": "Venice & Motor", "network": "Metro Local", "network:wikidata": "Q77610", "network:wikipedia": "en:Metro Local", "operator": "Los Angeles County Metropolitan Transportation Authority", "operator:wikidata": "Q3259702", "operator:wikipedia": "en:Los Angeles County Metropolitan Transportation Authority", "public_transport": "platform", "shelter": "yes", "tactile_paving": "no"}}, {"type": "node", "id": 4075193949, "lat": 34.0132202, "lon": -118.416354, "tags": {"bench": "yes", "bin": "no", "bus": "yes", "highway": "bus_stop", "name": "Venice & Sepulveda", "network": "Metro Local", "network:wikidata": "Q77610", "operator": "Los Angeles County Metropolitan Transportation Authority", "operator:wikidata": "Q3259702", "public_transport": "platform", "shelter": "no"}}, {"type": "node", "id": 4075193950, "lat": 34.0089572, "lon": -118.414237, "tags": {"bus": "yes", "highway": "bus_stop", "name": "Sepulveda & Washington Pl.", "network": "Culver CityBus", "network:wikidata": "Q5193719", "network:wikipedia": "en:Culver CityBus", "operator": "Culver CityBus", "public_transport": "platform"}}, {"type": "node", "id": 4075193951, "lat": 34.0076767, "lon": -118.413118, "tags": {"bench": "yes", "bus": "yes", "highway": "bus_stop", "name": "Sepulveda & Washington Blvd.", "network": "Culver CityBus", "network:wikidata": "Q5193719", "network:wikipedia": "en:Culver CityBus", "operator": "Culver CityBus", "public_transport": "platform", "shelter": "yes"}}, {"type": "node", "id": 4075193952, "lat": 34.0063838, "lon": -118.41267, "tags": {"bench": "yes", "bin": "yes", "bus": "yes", "highway": "bus_stop", "name": "Sepulveda & Washington Blvd.", "network": "Culver CityBus", "network:wikidata": "Q5193719", "network:wikipedia": "en:Culver CityBus", "operator": "Culver CityBus", "public_transport": "platform", "shelter": "yes", "tactile_paving": "no"}}, {"type": "node", "id": 4075193953, "lat": 34.00684, "lon": -118.413329, "tags": {"bench": "yes", "bin": "yes", "bus": "yes", "highway": "bus_stop", "name": "Washington & Sepulveda", "network": "Culver CityBus", "network:wikidata": "Q5193719", "network:wikipedia": "en:Culver CityBus", "operator": "Culver CityBus", "public_transport": "platform", "shelter": "yes"}}, {"type": "node", "id": 4075193954, "lat": 34.0073545, "lon": -118.412743, "tags": {"bench": "yes", "bus": "yes", "highway": "bus_stop", "name": "Washington & Sepulveda", "network": "Culver CityBus", "network:wikidata": "Q5193719", "network:wikipedia": "en:Culver CityBus", "operator": "Culver CityBus", "public_transport": "platform", "shelter": "yes"}}, {"type": "node", "id": 4075193956, "lat": 33.9947264, "lon": -118.395523, "tags": {"bench": "yes", "bus": "yes", "highway": "bus_stop", "name": "Sepulveda & Sawtelle", "network": "Culver CityBus", "network:wikidata": "Q5193719", "network:wikipedia": "en:Culver CityBus", "operator": "Culver CityBus", "public_transport": "platform", "shelter": "no", "wheelchair": "yes"}}, {"type": "node", "id": 4278772249, "lat": 34.028294, "lon": -118.469549, "tags": {"bench": "yes", "bin": "yes", "bus": "yes", "highway": "bus_stop", "lit": "yes", "name": "Olympic & 26th (26th St/Bergamot Station)", "network": "Big Blue Bus", "network:wikidata": "Q4905149", "network:wikipedia": "en:Big Blue Bus", "operator": "City of Santa Monica", "operator:wikidata": "Q47164", "public_transport": "platform", "shelter": "yes"}}, {"type": "node", "id": 4278772250, "lat": 34.0299123, "lon": -118.465251, "tags": {"bench": "yes", "bus": "yes", "highway": "bus_stop", "name": "Olympic & Stewart", "network": "Big Blue Bus", "network:wikidata": "Q4905149", "network:wikipedia": "en:Big Blue Bus", "operator": "City of Santa Monica", "operator:wikidata": "Q47164", "public_transport": "platform", "shelter": "yes"}}, {"type": "node", "id": 4281801226, "lat": 33.987484, "lon": -118.470897, "tags": {"bench": "yes", "bus": "yes", "highway": "bus_stop", "name": "Main & Venice Way", "network": "Big Blue Bus;Metro Local", "network:wikidata": "Q4905149;Q77610", "network:wikipedia": "en:Big Blue Bus;en:Metro Local", "operator": "Big Blue Bus;Los Angeles County Metropolitan Transportation Authority", "operator:wikidata": "Q3259702", "operator:wikipedia": "en:Los Angeles County Metropolitan Transportation Authority", "public_transport": "platform", "shelter": "yes"}}, {"type": "node", "id": 4281801227, "lat": 33.9901064, "lon": -118.472757, "tags": {"bench": "yes", "bus": "yes", "covered": "no", "highway": "bus_stop", "name": "Main & Westminster", "network": "Big Blue Bus", "network:wikidata": "Q4905149", "network:wikipedia": "en:Big Blue Bus", "operator": "City of Santa Monica", "operator:wikidata": "Q47164", "public_transport": "platform", "shelter": "yes"}}, {"type": "node", "id": 4281801228, "lat": 33.9903334, "lon": -118.472671, "tags": {"bench": "yes", "bus": "yes", "covered": "no", "highway": "bus_stop", "name": "Main & Westminster", "network": "Big Blue Bus", "network:wikidata": "Q4905149", "network:wikipedia": "en:Big Blue Bus", "operator": "City of Santa Monica", "operator:wikidata": "Q47164", "public_transport": "platform", "shelter": "yes"}}, {"type": "node", "id": 4281801231, "lat": 33.9941639, "lon": -118.476139, "tags": {"bench": "yes", "bus": "yes", "highway": "bus_stop", "name": "Main & Sunset", "network": "Big Blue Bus;Metro Local", "network:wikidata": "Q4905149;Q77610", "network:wikipedia": "en:Big Blue Bus;en:Metro Local", "operator": "Big Blue Bus;Los Angeles County Metropolitan Transportation Authority", "operator:wikidata": "Q3259702", "operator:wikipedia": "en:Los Angeles County Metropolitan Transportation Authority", "public_transport": "platform", "shelter": "yes"}}, {"type": "node", "id": 4281801233, "lat": 33.9947474, "lon": -118.476446, "tags": {"bench": "yes", "bus": "yes", "highway": "bus_stop", "name": "Main & Sunset", "network": "Big Blue Bus;Metro Local", "network:wikidata": "Q4905149;Q77610", "network:wikipedia": "en:Big Blue Bus;en:Metro Local", "operator": "Big Blue Bus;Los Angeles County Metropolitan Transportation Authority", "operator:wikidata": "Q3259702", "operator:wikipedia": "en:Los Angeles County Metropolitan Transportation Authority", "public_transport": "platform", "shelter": "yes"}}, {"type": "node", "id": 4288970050, "lat": 34.0142852, "lon": -118.492908, "tags": {"bench": "yes", "bin": "yes", "bus": "yes", "highway": "bus_stop", "name": "4th & Santa Monica Place (Downtown SM Station)", "network": "Big Blue Bus", "network:wikidata": "Q4905149", "network:wikipedia": "en:Big Blue Bus", "operator": "City of Santa Monica", "operator:wikidata": "Q47164", "public_transport": "platform", "shelter": "yes"}}, {"type": "node", "id": 4288970052, "lat": 34.0142505, "lon": -118.49249, "tags": {"bench": "yes", "bus": "yes", "highway": "bus_stop", "name": "4th & Colorado (Downtown SM Station)", "network": "Big Blue Bus", "network:wikidata": "Q4905149", "network:wikipedia": "en:Big Blue Bus", "operator": "City of Santa Monica", "operator:wikidata": "Q47164", "public_transport": "platform", "shelter": "yes"}}, {"type": "node", "id": 4288970053, "lat": 34.0150346, "lon": -118.49341, "tags": {"bench": "yes", "bin": "yes", "bus": "yes", "highway": "bus_stop", "lit": "yes", "name": "4th & Broadway", "network": "Big Blue Bus", "network:wikidata": "Q4905149", "network:wikipedia": "en:Big Blue Bus", "operator": "City of Santa Monica", "operator:wikidata": "Q47164", "public_transport": "platform", "ref": "1010", "shelter": "yes", "tactile_paving": "no"}}, {"type": "node", "id": 4288970054, "lat": 34.0151669, "lon": -118.493835, "tags": {"bench": "yes", "bin": "yes", "bus": "yes", "highway": "bus_stop", "name": "4th & Broadway", "network": "Big Blue Bus", "network:wikidata": "Q4905149", "network:wikipedia": "en:Big Blue Bus", "operator": "City of Santa Monica", "operator:wikidata": "Q47164", "public_transport": "platform", "shelter": "yes", "tactile_paving": "no"}}, {"type": "node", "id": 4305015899, "lat": 34.0030946, "lon": -118.470948, "tags": {"bench": "yes", "bus": "yes", "highway": "bus_stop", "name": "Lincoln & Marine", "network": "Big Blue Bus", "network:wikidata": "Q4905149", "network:wikipedia": "en:Big Blue Bus", "operator": "City of Santa Monica", "operator:wikidata": "Q47164", "public_transport": "platform", "shelter": "yes"}}, {"type": "node", "id": 4317430892, "lat": 34.0233401, "lon": -118.462053, "tags": {"bench": "yes", "bus": "yes", "highway": "bus_stop", "name": "Pico & 26th", "network": "Big Blue Bus", "network:wikidata": "Q4905149", "network:wikipedia": "en:Big Blue Bus", "operator": "City of Santa Monica", "operator:wikidata": "Q47164", "public_transport": "platform", "shelter": "no"}}, {"type": "node", "id": 4317430894, "lat": 34.0233629, "lon": -118.462435, "tags": {"bench": "yes", "bus": "yes", "highway": "bus_stop", "name": "Pico & 26th", "network": "Big Blue Bus", "network:wikidata": "Q4905149", "network:wikipedia": "en:Big Blue Bus", "operator": "City of Santa Monica", "operator:wikidata": "Q47164", "public_transport": "platform", "shelter": "no"}}, {"type": "node", "id": 4317430897, "lat": 34.0240673, "lon": -118.461128, "tags": {"bench": "yes", "bin": "no", "bus": "yes", "highway": "bus_stop", "name": "Pico & Stewart", "network": "Big Blue Bus", "network:wikidata": "Q4905149", "network:wikipedia": "en:Big Blue Bus", "operator": "City of Santa Monica", "operator:wikidata": "Q47164", "public_transport": "platform", "shelter": "yes"}}, {"type": "node", "id": 4400281321, "lat": 34.0219818, "lon": -118.33485, "tags": {"addr:city": "Los Angeles", "addr:housenumber": "3630", "addr:postcode": "90016", "addr:state": "CA", "addr:street": "South Crenshaw Boulevard", "light_rail": "yes", "name": "Expo/Crenshaw", "network": "Metro Rail", "network:wikidata": "Q1339558", "network:wikipedia": "en:Los Angeles Metro Rail", "operator": "Los Angeles County Metropolitan Transportation Authority", "operator:wikidata": "Q3259702", "operator:wikipedia": "en:Los Angeles County Metropolitan Transportation Authority", "owner": "Los Angeles County Metropolitan Transportation Authority", "owner:wikidata": "Q3259702", "owner:wikipedia": "en:Los Angeles County Metropolitan Transportation Authority", "public_transport": "station", "railway": "station", "station": "light_rail", "wikidata": "Q1953847", "wikipedia": "en:Expo/Crenshaw station"}}, {"type": "node", "id": 4400281326, "lat": 34.0238958, "lon": -118.3462035, "tags": {"light_rail": "yes", "name": "Farmdale", "network": "LACMTA", "operator": "Los Angeles County Metropolitan Transportation Authority", "public_transport": "station", "railway": "station", "station": "light_rail", "wikidata": "Q2092077"}}, {"type": "node", "id": 4551537797, "lat": 34.0182441, "lon": -118.4993452, "tags": {"bench": "no", "bin": "yes", "bus": "yes", "highway": "bus_stop", "name": "Yellow Route 59", "name:en": "Yellow Route 59", "public_transport": "platform", "shelter": "no", "tactile_paving": "no"}}, {"type": "node", "id": 4551550990, "lat": 34.0313691, "lon": -118.496134, "tags": {"bus": "yes", "highway": "bus_stop", "name": "Yellow Route 60", "name:en": "Yellow Route 60", "public_transport": "platform"}}, {"type": "node", "id": 4551553994, "lat": 34.0470994, "lon": -118.490175, "tags": {"bus": "yes", "highway": "bus_stop", "name": "Yellow Route 61", "name:en": "Yellow Route 61", "public_transport": "platform"}}, {"type": "node", "id": 4551651490, "lat": 33.9702256, "lon": -118.446003, "tags": {"bus": "yes", "highway": "bus_stop", "name": "Green Route 71", "name:en": "Green Route 71", "public_transport": "platform"}}, {"type": "node", "id": 4551651492, "lat": 33.96002, "lon": -118.419284, "tags": {"bus": "yes", "highway": "bus_stop", "name": "Orange Route 98", "name:en": "Orange Route 98", "public_transport": "platform"}}, {"type": "node", "id": 4551651591, "lat": 33.9850641, "lon": -118.450905, "tags": {"bus": "yes", "highway": "bus_stop", "name": "Green Route 73", "name:en": "Green Route 73", "public_transport": "platform"}}, {"type": "node", "id": 4551657889, "lat": 33.9833269, "lon": -118.457714, "tags": {"bus": "yes", "highway": "bus_stop", "name": "Green Route 74", "name:en": "Green Route 74", "public_transport": "platform"}}, {"type": "node", "id": 4551657890, "lat": 33.9801066, "lon": -118.465326, "tags": {"bus": "yes", "highway": "bus_stop", "name": "Green Route 75", "name:en": "Green Route 75", "public_transport": "platform"}}, {"type": "node", "id": 4551657891, "lat": 34.0006653, "lon": -118.485758, "tags": {"bus": "yes", "highway": "bus_stop", "name": "Green Route 82", "name:en": "Green Route 82", "public_transport": "platform"}}, {"type": "node", "id": 4551658792, "lat": 33.9811439, "lon": -118.463159, "tags": {"bus": "yes", "highway": "bus_stop", "name": "Green Route 85", "name:en": "Green Route 85", "public_transport": "platform"}}, {"type": "node", "id": 4551658793, "lat": 33.9846984, "lon": -118.450729, "tags": {"bus": "yes", "highway": "bus_stop", "name": "Green Route 87", "name:en": "Green Route 87", "public_transport": "platform"}}, {"type": "node", "id": 4551659090, "lat": 33.9830262, "lon": -118.457781, "tags": {"bus": "yes", "highway": "bus_stop", "name": "Green Route 86", "name:en": "Green Route 86", "public_transport": "platform"}}, {"type": "node", "id": 4551659091, "lat": 33.9701632, "lon": -118.446043, "tags": {"bus": "yes", "highway": "bus_stop", "name": "Orange Route 71", "name:en": "Orange Route 71", "public_transport": "platform"}}, {"type": "node", "id": 4623120591, "lat": 34.04369, "lon": -118.321056, "tags": {"bench": "no", "bus": "yes", "highway": "bus_stop", "name": "Venice & 4th", "network": "Metro Local", "network:wikidata": "Q77610", "network:wikipedia": "en:Los Angeles Metro Bus", "operator": "Los Angeles County Metropolitan Transportation Authority", "operator:wikidata": "Q3259702", "operator:wikipedia": "en:Los Angeles County Metropolitan Transportation Authority", "public_transport": "platform", "route_ref": "33", "shelter": "no"}}, {"type": "node", "id": 4649851291, "lat": 33.9455722, "lon": -118.3523676, "tags": {"bench": "yes", "bus": "yes", "highway": "bus_stop", "name": "Century & La Brea", "network": "Metro Local", "network:wikidata": "Q77610", "operator": "Los Angeles County Metropolitan Transportation Authority", "operator:wikidata": "Q3259702", "public_transport": "platform", "route_ref": "117", "shelter": "yes"}}, {"type": "node", "id": 4788734723, "lat": 33.9456751, "lon": -118.381607, "tags": {"bench": "no", "bin": "no", "bus": "yes", "covered": "no", "highway": "bus_stop", "kerb": "raised", "name": "Century & International", "network": "Metro Local;Beach Cities Transit", "network:wikidata": "Q5193719;Q77610", "operator": "Los Angeles County Metropolitan Transportation Authority;Redondo Beach", "operator:wikidata": "Q3259702", "operator:wikipedia": "en:Los Angeles County Metropolitan Transportation Authority", "public_transport": "platform", "ref": "170", "shelter": "no", "surface": "concrete", "tactile_paving": "no"}}, {"type": "node", "id": 4788797905, "lat": 33.9599823, "lon": -118.39336, "tags": {"bench": "yes", "bus": "yes", "highway": "bus_stop", "name": "Manchester / Truxton", "network": "Metro Local", "network:wikidata": "Q77610", "operator": "Los Angeles County Metropolitan Transportation Authority", "operator:wikidata": "Q3259702", "public_transport": "platform", "ref": "16111", "shelter": "no"}}, {"type": "node", "id": 5001836121, "lat": 34.0304504, "lon": -118.4162177, "tags": {"bench": "yes", "bus": "yes", "departures_board": "realtime", "highway": "bus_stop", "name": "Overland & National Place", "network": "Big Blue Bus;Culver CityBus", "network:wikidata": "Q4905149;Q5193719", "network:wikipedia": "en:Big Blue Bus;en:Culver CityBus", "operator": "Big Blue Bus;Culver CityBus", "operator:wikidata": "Q4905149", "public_transport": "platform", "ref": "2580", "shelter": "no"}}, {"type": "node", "id": 5002036674, "lat": 34.0294064, "lon": -118.410554, "tags": {"addr:housenumber": "9860", "addr:postcode": "90034", "addr:street": "National Boulevard", "bench": "yes", "bin": "yes", "bus": "yes", "description": "Big Blue 5", "highway": "bus_stop", "name": "National & Motor", "network": "Big Blue Bus", "network:wikidata": "Q4905149", "network:wikipedia": "en:Big Blue Bus", "operator": "City of Santa Monica", "operator:wikidata": "Q47164", "public_transport": "platform", "shelter": "no"}}, {"type": "node", "id": 5144023735, "lat": 34.0012583, "lon": -118.478849, "tags": {"bench": "no", "bus": "yes", "highway": "bus_stop", "name": "4th & Ashland", "network": "Big Blue Bus", "network:wikidata": "Q4905149", "network:wikipedia": "en:Big Blue Bus", "operator": "Big Blue Bus", "public_transport": "platform", "shelter": "no", "type": "public_transport"}}, {"type": "node", "id": 5144023736, "lat": 34.0006831, "lon": -118.478057, "tags": {"bench": "no", "bus": "yes", "highway": "bus_stop", "name": "4th & Pier", "network": "Big Blue Bus", "network:wikidata": "Q4905149", "network:wikipedia": "en:Big Blue Bus", "operator": "Big Blue Bus", "public_transport": "platform", "shelter": "no", "type": "public_transport"}}, {"type": "node", "id": 5144023737, "lat": 34.0130233, "lon": -118.495015, "tags": {"bench": "yes", "bus": "yes", "highway": "bus_stop", "name": "2nd & Broadway", "network": "Metro Local", "network:wikidata": "Q77610", "operator": "Los Angeles County Metropolitan Transportation Authority", "operator:wikidata": "Q3259702", "public_transport": "platform", "shelter": "no", "type": "public_transport"}}, {"type": "node", "id": 5144023738, "lat": 33.9980008, "lon": -118.479444, "tags": {"bench": "yes", "bus": "yes", "highway": "bus_stop", "name": "Main & Marine", "network": "Big Blue Bus;Metro Local", "network:wikidata": "Q4905149;Q77610", "network:wikipedia": "en:Big Blue Bus;en:Metro Local", "operator": "Big Blue Bus;Los Angeles County Metropolitan Transportation Authority", "operator:wikidata": "Q3259702", "operator:wikipedia": "en:Los Angeles County Metropolitan Transportation Authority", "public_transport": "platform", "shelter": "yes", "type": "public_transport"}}, {"type": "node", "id": 5144023739, "lat": 34.0040555, "lon": -118.485525, "tags": {"bench": "yes", "bus": "yes", "highway": "bus_stop", "name": "Main & Hollister", "network": "Big Blue Bus", "network:wikidata": "Q4905149", "network:wikipedia": "en:Big Blue Bus", "operator": "City of Santa Monica", "operator:wikidata": "Q47164", "public_transport": "platform", "shelter": "yes", "type": "public_transport"}}, {"type": "node", "id": 5144023740, "lat": 33.9995177, "lon": -118.480962, "tags": {"bench": "yes", "bus": "yes", "highway": "bus_stop", "name": "Main & Ashland", "network": "Big Blue Bus", "network:wikidata": "Q4905149", "network:wikipedia": "en:Big Blue Bus", "operator": "Big Blue Bus", "public_transport": "platform", "shelter": "yes", "type": "public_transport"}}, {"type": "node", "id": 5144023741, "lat": 34.0071447, "lon": -118.488741, "tags": {"bench": "no", "bus": "yes", "highway": "bus_stop", "name": "Main & Bay", "network": "Big Blue Bus", "network:wikidata": "Q4905149", "network:wikipedia": "en:Big Blue Bus", "operator": "City of Santa Monica", "operator:wikidata": "Q47164", "public_transport": "platform", "shelter": "yes", "type": "public_transport"}}, {"type": "node", "id": 5144023742, "lat": 34.0055778, "lon": -118.487168, "tags": {"bench": "yes", "bus": "yes", "highway": "bus_stop", "name": "Main & Pacific", "network": "Big Blue Bus", "network:wikidata": "Q4905149", "network:wikipedia": "en:Big Blue Bus", "operator": "City of Santa Monica", "operator:wikidata": "Q47164", "public_transport": "platform", "shelter": "yes", "type": "public_transport"}}, {"type": "node", "id": 5144023744, "lat": 33.9982568, "lon": -118.479982, "tags": {"bench": "yes", "bus": "yes", "highway": "bus_stop", "name": "Main & Marine", "network": "Big Blue Bus;Metro Local", "network:wikidata": "Q4905149;Q77610", "network:wikipedia": "en:Big Blue Bus;en:Metro Local", "operator": "Big Blue Bus;Los Angeles County Metropolitan Transportation Authority", "operator:wikidata": "Q3259702", "operator:wikipedia": "en:Los Angeles County Metropolitan Transportation Authority", "public_transport": "platform", "shelter": "yes", "type": "public_transport"}}, {"type": "node", "id": 5144023745, "lat": 34.0080792, "lon": -118.489884, "tags": {"bench": "yes", "bus": "yes", "highway": "bus_stop", "name": "Main & Pico", "network": "Big Blue Bus;Metro Local", "network:wikidata": "Q4905149;Q77610", "network:wikipedia": "en:Big Blue Bus;en:Metro Local", "operator": "Big Blue Bus;Los Angeles County Metropolitan Transportation Authority", "operator:wikidata": "Q3259702", "operator:wikipedia": "en:Los Angeles County Metropolitan Transportation Authority", "public_transport": "platform", "shelter": "yes", "type": "public_transport"}}, {"type": "node", "id": 5144023746, "lat": 34.0009464, "lon": -118.482388, "tags": {"bench": "yes", "bus": "yes", "highway": "bus_stop", "name": "Main & Hill", "network": "Big Blue Bus", "network:wikidata": "Q4905149", "network:wikipedia": "en:Big Blue Bus", "operator": "City of Santa Monica", "operator:wikidata": "Q47164", "public_transport": "platform", "shelter": "yes", "type": "public_transport"}}, {"type": "node", "id": 5144023747, "lat": 34.010164, "lon": -118.4901626, "tags": {"bus": "yes", "highway": "bus_stop", "name": "Main & Civic Auditorium", "network": "Big Blue Bus", "network:wikidata": "Q4905149", "network:wikipedia": "en:Big Blue Bus", "operator": "City of Santa Monica", "operator:wikidata": "Q47164", "public_transport": "platform", "type": "public_transport"}}, {"type": "node", "id": 5144023748, "lat": 34.0071833, "lon": -118.489097, "tags": {"bench": "yes", "bus": "yes", "highway": "bus_stop", "name": "Main & Bay", "network": "Big Blue Bus", "network:wikidata": "Q4905149", "network:wikipedia": "en:Big Blue Bus", "operator": "City of Santa Monica", "operator:wikidata": "Q47164", "public_transport": "platform", "shelter": "yes", "type": "public_transport"}}, {"type": "node", "id": 5144023749, "lat": 34.0019288, "lon": -118.483651, "tags": {"bench": "yes", "bus": "yes", "highway": "bus_stop", "name": "Main & Ocean Park", "network": "Big Blue Bus", "network:wikidata": "Q4905149", "network:wikipedia": "en:Big Blue Bus", "operator": "Big Blue Bus", "public_transport": "platform", "shelter": "yes", "type": "public_transport"}}, {"type": "node", "id": 5144023750, "lat": 34.0024828, "lon": -118.483507, "tags": {"bench": "yes", "bus": "yes", "highway": "bus_stop", "name": "Ocean Park & Main", "network": "Big Blue Bus", "network:wikidata": "Q4905149", "network:wikipedia": "en:Big Blue Bus", "operator": "City of Santa Monica", "operator:wikidata": "Q47164", "public_transport": "platform", "shelter": "yes", "type": "public_transport"}}, {"type": "node", "id": 5144023751, "lat": 34.0056438, "lon": -118.487527, "tags": {"bench": "yes", "bus": "yes", "highway": "bus_stop", "name": "Main & Pacific", "network": "Big Blue Bus", "network:wikidata": "Q4905149", "network:wikipedia": "en:Big Blue Bus", "operator": "City of Santa Monica", "operator:wikidata": "Q47164", "public_transport": "platform", "shelter": "yes", "type": "public_transport"}}, {"type": "node", "id": 5144023752, "lat": 34.0043934, "lon": -118.486258, "tags": {"bench": "yes", "bus": "yes", "highway": "bus_stop", "name": "Main & Hollister", "network": "Big Blue Bus", "network:wikidata": "Q4905149", "network:wikipedia": "en:Big Blue Bus", "operator": "City of Santa Monica", "operator:wikidata": "Q47164", "public_transport": "platform", "shelter": "yes", "type": "public_transport"}}, {"type": "node", "id": 5144023753, "lat": 34.0025413, "lon": -118.484002, "tags": {"bench": "yes", "bus": "yes", "highway": "bus_stop", "name": "Main & Ocean Park", "network": "Big Blue Bus", "network:wikidata": "Q4905149", "network:wikipedia": "en:Big Blue Bus", "operator": "City of Santa Monica", "operator:wikidata": "Q47164", "public_transport": "platform", "shelter": "yes", "type": "public_transport"}}, {"type": "node", "id": 5144023754, "lat": 34.0025287, "lon": -118.483768, "tags": {"bench": "yes", "bus": "yes", "highway": "bus_stop", "name": "Ocean Park & Main", "network": "Big Blue Bus", "network:wikidata": "Q4905149", "network:wikipedia": "en:Big Blue Bus", "operator": "City of Santa Monica", "operator:wikidata": "Q47164", "public_transport": "platform", "shelter": "yes", "type": "public_transport"}}, {"type": "node", "id": 5144023755, "lat": 34.0083573, "lon": -118.489744, "tags": {"bench": "no", "bus": "yes", "highway": "bus_stop", "name": "Main & Pico", "network": "Big Blue Bus;Metro Local", "network:wikidata": "Q4905149;Q77610", "network:wikipedia": "en:Big Blue Bus;en:Metro Local", "operator": "Big Blue Bus;Los Angeles County Metropolitan Transportation Authority", "operator:wikidata": "Q3259702", "operator:wikipedia": "en:Los Angeles County Metropolitan Transportation Authority", "public_transport": "platform", "shelter": "yes", "type": "public_transport"}}, {"type": "node", "id": 5144023756, "lat": 34.0080984, "lon": -118.48935, "tags": {"bench": "yes", "bus": "yes", "highway": "bus_stop", "name": "Pico & Main", "network": "Big Blue Bus", "network:wikidata": "Q4905149", "network:wikipedia": "en:Big Blue Bus", "operator": "City of Santa Monica", "operator:wikidata": "Q47164", "public_transport": "platform", "shelter": "yes", "type": "public_transport"}}, {"type": "node", "id": 5144023757, "lat": 33.9996008, "lon": -118.481318, "tags": {"bench": "yes", "bus": "yes", "highway": "bus_stop", "name": "Main & Ashland", "network": "Big Blue Bus", "network:wikidata": "Q4905149", "network:wikipedia": "en:Big Blue Bus", "operator": "Big Blue Bus", "public_transport": "platform", "shelter": "yes", "type": "public_transport"}}, {"type": "node", "id": 5144023758, "lat": 34.0010225, "lon": -118.482744, "tags": {"bench": "no", "bus": "yes", "highway": "bus_stop", "name": "Main & Hill", "network": "Big Blue Bus", "network:wikidata": "Q4905149", "network:wikipedia": "en:Big Blue Bus", "operator": "City of Santa Monica", "operator:wikidata": "Q47164", "public_transport": "platform", "shelter": "no", "type": "public_transport"}}, {"type": "node", "id": 5220413796, "lat": 33.8727467, "lon": -118.3565035, "tags": {"bench": "yes", "bin": "yes", "bus": "yes", "fixme": "At least one more Metro line stops here, possibly two. A 2020 sign shows lines 40, 130 and 740, but that was before they built the new transit center.", "highway": "bus_stop", "name": "Artesia and Kingsdale", "network": "Metro Local;Torrance Transit;Beach Cities Transit", "network:wikidata": "Q77610;Q7826932;Q4875696", "operator": "Los Angeles County Metropolitan Transportation Authority", "operator:wikidata": "Q3259702", "public_transport": "platform", "route_ref": "40", "shelter": "no", "tactile_paving": "no"}}, {"type": "node", "id": 5220413797, "lat": 33.872704, "lon": -118.351974, "tags": {"bench": "yes", "bin": "no", "bus": "yes", "highway": "bus_stop", "name": "Artesia and Hawthorne", "network": "Metro Local;Torrance Transit", "network:wikidata": "Q77610;Q7826932", "operator": "Los Angeles County Metropolitan Transportation Authority", "operator:wikidata": "Q3259702", "public_transport": "platform", "shelter": "yes"}}, {"type": "node", "id": 5360527586, "lat": 33.8945006, "lon": -118.3689778, "tags": {"light_rail": "yes", "name": "Redondo Beach", "network": "LACMTA", "operator": "Los Angeles County Metropolitan Transportation Authority", "public_transport": "station", "railway": "station", "station": "light_rail", "wikidata": "Q4383242"}}, {"type": "node", "id": 5360530767, "lat": 33.9051265, "lon": -118.3829334, "tags": {"light_rail": "yes", "name": "Douglas", "network": "LACMTA", "operator": "Los Angeles County Metropolitan Transportation Authority", "public_transport": "station", "railway": "station", "station": "light_rail", "wikidata": "Q5301170"}}, {"type": "node", "id": 5360533318, "lat": 33.9162001, "lon": -118.3867319, "tags": {"light_rail": "yes", "name": "El Segundo", "network": "LACMTA", "operator": "Los Angeles County Metropolitan Transportation Authority", "public_transport": "station", "railway": "station", "station": "light_rail", "wikidata": "Q5352134"}}, {"type": "node", "id": 5360540476, "lat": 33.9232168, "lon": -118.387579, "tags": {"light_rail": "yes", "name": "Mariposa", "network": "LACMTA", "operator": "Los Angeles County Metropolitan Transportation Authority", "public_transport": "station", "railway": "station", "station": "light_rail", "wikidata": "Q10748197"}}, {"type": "node", "id": 5360547375, "lat": 33.9335004, "lon": -118.3519756, "tags": {"light_rail": "yes", "name": "Hawthorne/Lennox", "network": "LACMTA", "operator": "Los Angeles County Metropolitan Transportation Authority", "public_transport": "station", "railway": "station", "station": "light_rail", "wikidata": "Q196302"}}, {"type": "node", "id": 5360549248, "lat": 33.9252122, "lon": -118.3265295, "tags": {"light_rail": "yes", "name": "Crenshaw", "network": "LACMTA", "operator": "Los Angeles County Metropolitan Transportation Authority", "public_transport": "station", "railway": "station", "station": "light_rail", "wikidata": "Q5184167", "wikipedia": "en:Crenshaw station"}}, {"type": "node", "id": 5438732535, "lat": 34.0356635, "lon": -118.434164, "tags": {"addr:housenumber": "5400", "addr:street": "Sepulveda Boulevard", "bench": "yes", "bin": "yes", "bus": "yes", "highway": "bus_stop", "name": "Sepulveda & Exposition", "network": "Culver CityBus", "network:wikidata": "Q5193719", "network:wikipedia": "en:Culver CityBus", "operator": "Culver CityBus", "public_transport": "platform", "ref": "NCCB 635", "shelter": "no", "tactile_paving": "no"}}, {"type": "node", "id": 5444142197, "lat": 34.0140488, "lon": -118.497826, "tags": {"bench": "yes", "bus": "yes", "highway": "bus_stop", "name": "Ocean & Santa Monica", "network": "Big Blue Bus;Metro Local;Metro Express", "network:wikidata": "Q4905149;Q77610", "network:wikipedia": "en:Big Blue Bus;en:Metro Local", "operator": "Los Angeles County Metropolitan Transportation Authority", "operator:wikidata": "Q3259702", "operator:wikipedia": "en:Los Angeles County Metropolitan Transportation Authority", "public_transport": "platform", "shelter": "yes"}}, {"type": "node", "id": 5521211821, "lat": 33.9738546, "lon": -118.4304339, "tags": {"bus": "yes", "highway": "bus_stop", "network": "Playa Vista", "public_transport": "platform"}}, {"type": "node", "id": 5581330825, "lat": 34.0482282, "lon": -118.435611, "tags": {"addr:postcode": "90025", "addr:street": "Westwood Boulevard", "bench": "yes", "bin": "yes", "bus": "yes", "highway": "bus_stop", "lit": "yes", "name": "Westwood & Missouri", "network": "Big Blue Bus", "network:wikidata": "Q4905149", "network:wikipedia": "en:Big Blue Bus", "operator": "City of Santa Monica", "operator:wikidata": "Q47164", "phone": "+1-310-451-5444", "public_transport": "platform", "ref": "SMBBB 2381", "shelter": "yes", "tactile_paving": "no", "website": "https://www.bigbluebus.com/8"}}, {"type": "node", "id": 5634145922, "lat": 33.9453223, "lon": -118.3652576, "tags": {"bench": "yes", "bus": "yes", "highway": "bus_stop", "name": "Century & Felton", "network": "Metro Local", "network:wikidata": "Q77610", "operator": "Los Angeles County Metropolitan Transportation Authority", "operator:wikidata": "Q3259702", "public_transport": "platform", "shelter": "yes"}}, {"type": "node", "id": 5769500531, "lat": 33.9759119, "lon": -118.4184949, "tags": {"bus": "yes", "highway": "bus_stop", "public_transport": "platform"}}, {"type": "node", "id": 5774256204, "lat": 33.9786565, "lon": -118.4105481, "tags": {"bus": "yes", "highway": "bus_stop", "network": "Playa Vista Link", "public_transport": "platform", "ref": "11"}}, {"type": "node", "id": 5774256205, "lat": 33.9788083, "lon": -118.4075433, "tags": {"bench": "yes", "bus": "yes", "highway": "bus_stop", "lit": "yes", "network": "Playa Vista Link", "public_transport": "platform", "ref": "6", "shelter": "yes"}},